"시설번호","지역코드","시설일련번호","시도명","시군구명","시설구분코드","시설구분","수용시설명","도로명주소코드","법정동코드","행정동코드","상세주소","시설면적","이재민수용능력","관리부서","지자체담당자연락처","경도","위도","X좌표","Y좌표"
"7176","1150000000","372","서울특별시","강서구","003","경로당","원당 경로당","1150010600106500000008335","1150010600","1150061500","서울특별시 강서구 강서로52길 72(내발산동)","96","36","나강하","010-6690-3044","126.842141","37.557270","186051.949904","550872.043067"
"7177","1150000000","408","서울특별시","강서구","003","경로당","신광명경로당","1150010700102210001009151","1150010700","1150061100","서울특별시 강서구 남부순환로19길 105(외발산동)","260","100","송병근","010-5235-8383","126.823064","37.546780","184364.094665","549710.872556"
"7178","1150000000","426","서울특별시","강서구","001","학교","송정초등학교 체육관","1150010800100220169005513","1150010800","1150062000","서울특별시 강서구 공항대로3길 18(공항동)","618","237","임선미","010-8532-1104","126.810892","37.562181","183291.909546","551422.258280"
"7179","1150000000","427","서울특별시","강서구","001","학교","송정중학교","1150010800107680001007651","1150010800","1150062000","서울특별시 강서구 남부순환로 121(공항동)","869","334","조방희","010-2644-4571","126.815248","37.553596","183674.898825","550468.658457"
"7180","1150000000","376","서울특별시","강서구","003","경로당","산우물 경로당","1150010800100020091007853","1150010800","1150062000","서울특별시 강서구 방화대로21가길 18(공항동)","167","64","김명연","010-5575-9926","126.814674","37.563764","183626.379243","551597.290638"
"7181","1150000000","377","서울특별시","강서구","003","경로당","다솔 경로당","1150010800113610001007925","1150010800","1150062000","서울특별시 강서구 방화대로6길 24-3 (공항동)","349","134","김순이","010-8876-2988","126.818179","37.554823","183934.126668","550604.387114"
"7182","1150000000","374","서울특별시","강서구","003","경로당","동부경로당","1150010800100410068007903","1150010800","1150062000","서울특별시 강서구 공항대로8길 33-9 (공항동)","87","37","황영길","010-8989-8651","126.812864","37.559549","183465.573478","551129.800414"
"7183","1153000000","368","서울특별시","구로구","001","학교","구현고등학교","1153010200106200030000003","1153010200","1153053000","서울특별시 구로구 경인로53가길 17(구로동)","799","307","","","126.874535","37.502237","188906.015265","544759.787326"
"7184","1153000000","365","서울특별시","구로구","004","관공서","구로구민회관","1153010200101020000020807","1153010200","1153056000","서울특별시 구로구 가마산로25길 21(구로동)","151","58","","","126.889365","37.496926","190216.684655","544168.727778"
"7185","1153000000","366","서울특별시","구로구","004","관공서","구로3동주민센터","1153010200107770022000002","1153010200","1153054000","서울특별시 구로구 디지털로31길 109(구로동)","173","66","","","126.890325","37.487346","190300.290981","543105.392447"
"7186","1153000000","376","서울특별시","구로구","007","기타시설","롯데시티호텔 구로","1153010200101880025022719","1153010200","1153054000","서울특별시 구로구 디지털로 300(구로동)","132","20","","","126.896261","37.485064","190825.009998","542851.466644"
"7187","1153000000","369","서울특별시","구로구","014","공공시설(국?공립도서관, 공립병원, 시?도민회관, 구민회관 주민체육시설, 노인병원, 어린이도서관 등)","화원종합사회복지관","1153010200104760134026810","1153010200","1153053000","서울특별시 구로구 벚꽃로 484(구로동)","220","84","","","126.880139","37.497347","189400.837019","544216.462321"
"7188","1153000000","362","서울특별시","구로구","001","학교","서울영일초등학교","1153010300100210003015167","1153010300","1153059500","서울특별시 구로구 남부순환로105길 218(가리봉동)","641","246","","","126.883437","37.484688","189690.736602","542811.032616"
"7189","1153000000","377","서울특별시","구로구","007","기타시설","제이에스호스텔","1153010300101350025016174","1153010300","1153059500","서울특별시 구로구 남부순환로105길 32(가리봉동)","55","15","","","126.891042","37.479498","190362.745162","542234.270114"
"7190","1153000000","16","서울특별시","구로구","001","학교","세곡초등학교","1153010600102530129012952","1153010600","1153073000","서울특별시 구로구 고척로33길 34(고척동)","720","277","김성자","010-8628-5101","126.849119","37.504817","186659.133699","545049.483693"
"7191","1153000000","348","서울특별시","구로구","001","학교","고척중학교","1153010600100760002014399","1153010600","1153072000","서울특별시 구로구 중앙로3길 20(고척동)","1046","402","김선익","","126.862068","37.500226","187803.335324","544538.148082"
"7192","1153000000","349","서울특별시","구로구","001","학교","고산초등학교","1153010600100760380014306","1153010600","1153072000","서울특별시 구로구 중앙로 6(고척동)","612","235","이종진","","126.865397","37.499342","188097.562643","544439.609278"
"7193","1153000000","344","서울특별시","구로구","001","학교","고척고등학교","1153010600102320000026814","1153010600","1153073000","서울특별시 구로구 중앙로15길 162(고척동)","372","143","박정열","02-2684-1593","126.850947","37.488094","186817.825990","543193.152753"
"7194","1153000000","345","서울특별시","구로구","001","학교","덕의초등학교","1153010600102170000012930","1153010600","1153073000","서울특별시 구로구 고척로 213(고척동)","927","357","나미현","","126.856733","37.506217","187332.598851","545203.777056"
"7195","1153000000","350","서울특별시","구로구","001","학교","고원초등학교","1153010600100660026014584","1153010600","1153072000","서울특별시 구로구 경인로46길 13(고척동)","713","274","류승현","","126.865797","37.497566","188132.652104","544242.445702"
"7196","1153000000","351","서울특별시","구로구","001","학교","경인고등학교","1153010600100660028014582","1153010600","1153072000","서울특별시 구로구 경인로46길 31(고척동)","1101","423","윤종모","","126.865397","37.496837","188097.165048","544161.586640"
"7197","1153000000","363","서울특별시","구로구","001","학교","서울고척초등학교","1153010600101290003014389","1153010600","1153072000","서울특별시 구로구 경서로 31(고척동)","552","212","","","126.857191","37.500949","187372.221260","544619.008305"
"7198","1153000000","371","서울특별시","구로구","014","공공시설(국?공립도서관, 공립병원, 시?도민회관, 구민회관 주민체육시설, 노인병원, 어린이도서관 등)","구로구민체육센터","1153010600200090014013166","1153010600","1153073000","서울특별시 구로구 고척로45길 39(고척동)","5264","2024","구로구시설관리공단","0220679300","126.852536","37.506133","186961.455077","545195.017427"
"7199","1153000000","316","서울특별시","구로구","001","학교","매봉초등학교","1153010700100030000010669","1153010700","1153074000","서울특별시 구로구 고척로21길 55(개봉동)","110","42","정남연","010-3327-3176","126.844575","37.504402","186257.274305","545004.072311"
"7200","1153000000","333","서울특별시","구로구","001","학교","개명초등학교","1153010700103140165000001","1153010700","1153076000","서울특별시 구로구 개봉로1다길 16-9 (개봉동)","715","275","노진웅","02-2684-5116","126.850698","37.483005","186794.877952","542628.405515"
"7201","1153000000","339","서울특별시","구로구","001","학교","개웅중학교","1153010700102730015008459","1153010700","1153076000","서울특별시 구로구 개봉로11길 81(개봉동)","546","210","김미숙","010-8945-7036","126.851251","37.487542","186844.614817","543131.845458"
"7202","1154500000","331","서울특별시","금천구","004","관공서","가산동주민센터","1154510100101440003015759","1154510100","1154551000","서울특별시 금천구 가산로 129(가산동)","135","51","기진세","02-2104-5200","126.891763","37.476873","190426.147139","541942.884324"
"7203","1154500000","332","서울특별시","금천구","004","관공서","가산종합사회복지관","1154510100101440003015759","1154510100","1154551000","서울특별시 금천구 가산로 129(가산동)","170","65","최선용","02-868-6856","126.891763","37.476873","190426.147139","541942.884324"
"7204","1154500000","10","서울특별시","금천구","001","학교","정심초등학교","1154510200101820044007783","1154510200","1154564000","서울특별시 금천구 독산로78다길 89(독산동)","500","192","김성곤","","126.908460","37.471646","191902.508761","541361.178572"
"7205","1154500000","6","서울특별시","금천구","001","학교","가산초등학교","1154510200101430023012048","1154510200","1154561000","서울특별시 금천구 남부순환로 1304-11 (독산동)","500","192","안성미","028644089","126.896406","37.477953","190836.998698","542062.263542"
"7206","1154500000","7","서울특별시","금천구","001","학교","안천중학교","1154510200110890000013439","1154510200","1154561000","서울특별시 금천구 한내로 69-44 (독산동)","900","346","오창영","","126.887722","37.459219","190066.335712","539983.849697"
"7207","1154500000","8","서울특별시","금천구","001","학교","문교초등학교","1154510200202020001010117","1154510200","1154562000","서울특별시 금천구 독산로54길 102(독산동)","900","346","김명원","02-895-3279","126.908684","37.466393","191921.714891","540778.080752"
"7208","1154500000","11","서울특별시","금천구","001","학교","문성초등학교","1154510200109820000016819","1154510200","1154563000","서울특별시 금천구 시흥대로 460(독산동)","500","192","박미영","","126.899370","37.474566","191098.744145","541686.049785"
"7209","1154500000","311","서울특별시","금천구","001","학교","가산중학교","1154510200103000021012060","1154510200","1154561000","서울특별시 금천구 시흥대로115길 48(독산동)","900","346","주정숙","","126.894362","37.468378","190654.976444","540999.745730"
"7947","1111000000","362","서울특별시","종로구","001","학교","청운중학교","1111010100100890143031481","1111010100","1111051500","서울특별시 종로구 창의문로 51(청운동)","1915","736","","","126.970971","37.589080","197436.171432","554391.346146"
"7948","1111000000","363","서울특별시","종로구","001","학교","경복고등학교","1111010100100890009031514","1111010100","1111051500","서울특별시 종로구 자하문로28가길 9(청운동)","330","126","","","126.972439","37.587320","197565.717065","554195.914824"
"7949","1111000000","359","서울특별시","종로구","001","학교","경기상업고등학교","1111010100100890143031495","1111010100","1111051500","서울특별시 종로구 자하문로 136(청운동)","1629","626","","","126.970898","37.587992","197429.680462","554270.615735"
"7950","1111000000","364","서울특별시","종로구","001","학교","청운초등학교","1111010100101230000031525","1111010100","1111051500","서울특별시 종로구 자하문로 105(청운동)","960","369","","","126.969419","37.585966","197298.984038","554045.740894"
"7951","1111000000","344","서울특별시","종로구","002","마을회관","청운효자동자치회관","1111011100100450030030727","1111011100","1111051500","서울특별시 종로구 자하문로19길 36(옥인동)","142","54","원민숙","010-8622-8994","126.969255","37.581804","197284.307081","553583.778805"
"7952","1111000000","358","서울특별시","종로구","001","학교","매동초등학교","1111011300100320000028641","1111011300","1111053000","서울특별시 종로구 사직로9길 19(필운동)","330","126","","","126.966316","37.577262","197024.589567","553079.785600"
"7953","1111000000","345","서울특별시","종로구","004","관공서","사직동주민센터","1111011500100010028028478","1111011500","1111053000","서울특별시 종로구 사직로9길 1(사직동)","121","46","","","126.967314","37.575868","197112.642101","552925.045412"
"7954","1111000000","331","서울특별시","종로구","007","기타시설","종로문화체육센터","1111011500102840001028313","1111011500","1111053000","서울특별시 종로구 인왕산로1길 21(사직동)","2167","833","원유호","02-732-9392","126.964625","37.574132","196875.014885","552732.478803"
"7955","1111000000","372","서울특별시","종로구","013","연수,숙박","서머셋펠리스 서울","1111012400100850000031906","1111012400","1111061500","서울특별시 종로구 율곡로2길 7(수송동)","19800","240","","","126.981162","37.575170","198335.871241","552847.246720"
"7956","1111000000","349","서울특별시","종로구","004","관공서","종로1234가동 주민센터","1111013300100990000015181","1111013300","1111061500","서울특별시 종로구 삼일대로30길 47(익선동)","355","136","","","126.989383","37.574442","199062.116326","552766.368808"
"7957","1111000000","301","서울특별시","종로구","001","학교","교동초등학교","1111013400100020000017920","1111013400","1111061500","서울특별시 종로구 삼일대로 446(경운동)","396","152","고양훈","02-763-6626","126.987747","37.574764","198917.569768","552802.048097"
"7958","1111000000","335","서울특별시","종로구","004","관공서","삼청동주민센터","1111014000101050001026465","1111014000","1111054000","서울특별시 종로구 삼청로 107(삼청동)","155","59","오병섭","","126.981776","37.584975","198390.374083","553935.442090"
"7210","1154500000","312","서울특별시","금천구","001","학교","독산초등학교","1154510200110340000010201","1154510200","1154562000","서울특별시 금천구 시흥대로104길 31(독산동)","900","346","정경민","02-895-0533","126.900060","37.465230","191158.659393","540649.763659"
"7211","1154500000","330","서울특별시","금천구","001","학교","문성중학교","1154510200200060026009237","1154510200","1154563000","서울특별시 금천구 독산로102길 78(독산동)","900","346","최병섭","02-868-04052","126.908021","37.475727","191864.083147","541814.118263"
"7212","1153000000","374","서울특별시","구로구","001","학교","신미림초등학교","1153010100103980028026712","1153010100","1153051000","서울특별시 구로구 신도림로 26(신도림동)","495","190","최두환","02-2676-7591","126.879277","37.509160","189326.311914","545527.631088"
"7213","1153000000","302","서울특별시","구로구","001","학교","구일고등학교","1153010200106850194025204","1153010200","1153052000","서울특별시 구로구 구일로 90-51 (구로동)","298","115","조성민","010-8213-4290","126.878275","37.494012","189235.531784","543846.503277"
"7214","1153000000","9","서울특별시","구로구","001","학교","구로초등학교","1153010200104430000018883","1153010200","1153053000","서울특별시 구로구 구로중앙로27나길 9(구로동)","1357","522","조현정","","126.886063","37.496888","189924.653826","544164.797598"
"7215","1153000000","10","서울특별시","구로구","001","학교","구로중학교","1153010200100900000016958","1153010200","1153055000","서울특별시 구로구 구로중앙로 48(구로동)","1530","588","최순기","010-9299-8278","126.886825","37.500538","189992.513358","544569.829109"
"7216","1153000000","11","서울특별시","구로구","001","학교","동구로초등학교","1153010200100930000016353","1153010200","1153055000","서울특별시 구로구 구로중앙로14길 43(구로동)","752","289","김숙영","010-8809-7353","126.892536","37.494815","190496.776268","543934.033916"
"7217","1153000000","353","서울특별시","구로구","001","학교","구일중학교","1153010200106850161025233","1153010200","1153052000","서울특별시 구로구 구일로 90-133 (구로동)","865","333","김영철","","126.873722","37.495100","188833.062040","543967.737592"
"7218","1153000000","356","서울특별시","구로구","001","학교","구로남초등학교","1153010200102530000022873","1153010200","1153054000","서울특별시 구로구 디지털로27길 76(구로동)","1138","438","박지선","","126.890841","37.484874","190345.601005","542830.940024"
"7219","1153000000","357","서울특별시","구로구","001","학교","영서중학교","1153010200101450020022703","1153010200","1153054000","서울특별시 구로구 도림로20길 35(구로동)","1253","482","임태형","","126.894735","37.488994","190690.528240","543287.810279"
"7220","1153000000","352","서울특별시","구로구","001","학교","구일초등학교","1153010200106850221025185","1153010200","1153052000","서울특별시 구로구 구일로 68(구로동)","653","251","김현진","","126.872936","37.492747","188763.220282","543706.723104"
"7221","1153000000","372","서울특별시","구로구","014","공공시설(국?공립도서관, 공립병원, 시?도민회관, 구민회관 주민체육시설, 노인병원, 어린이도서관 등)","개웅산생활체육관","1153010700102980003000001","1153010700","1153076000","서울특별시 구로구 개봉로3길 108-20 (개봉동)","1072","412","구로구시설관리공단","20679300","126.849657","37.485261","186703.274870","542878.901595"
"7222","1153000000","319","서울특별시","구로구","001","학교","오류초등학교","1153010800100150000004859","1153010800","1153077000","서울특별시 구로구 경인로19길 39(오류동)","899","346","오현","010-6274-2163","126.842121","37.497806","186039.022011","544272.326692"
"7223","1153000000","367","서울특별시","구로구","001","학교","서울오정초등학교","1153010800101080028004033","1153010800","1153078000","서울특별시 구로구 경인로2길 10(오류동)","750","288","","","126.826460","37.489710","184652.536829","543376.254661"
"7224","1153000000","375","서울특별시","구로구","007","기타시설","코업시티호텔","1153010800100550042005444","1153010800","1153077000","서울특별시 구로구 경인로20가길 19(오류동)","130","15","이성근","","126.844730","37.495820","186269.449676","544051.567925"
"7225","1153000000","359","서울특별시","구로구","001","학교","서울정진학교","1153010900102420000000399","1153010900","1153079000","서울특별시 구로구 부일로9길 158(궁동)","776","298","","","126.820767","37.498835","184151.016880","544389.958302"
"7226","1153000000","358","서울특별시","구로구","001","학교","세종과학고등학교","1153010900200180007000001","1153010900","1153079000","서울특별시 구로구 오리로21길 79(궁동)","670","258","","","126.827550","37.497480","184750.526977","544238.419109"
"7227","1153000000","370","서울특별시","구로구","014","공공시설(국?공립도서관, 공립병원, 시?도민회관, 구민회관 주민체육시설, 노인병원, 어린이도서관 등)","궁동종합사회복지관","1153010900101080009001787","1153010900","1153079000","서울특별시 구로구 오리로22길 5(궁동)","137","52","","","126.829630","37.499018","184934.710593","544408.732517"
"7228","1153000000","360","서울특별시","구로구","001","학교","서울온수초등학교","1153011000200020008001534","1153011000","1153079000","서울특별시 구로구 부일로 893(온수동)","640","246","","","126.825902","37.494141","184604.060838","543868.050525"
"7229","1153000000","373","서울특별시","구로구","014","공공시설(국?공립도서관, 공립병원, 시?도민회관, 구민회관 주민체육시설, 노인병원, 어린이도서관 등)","온수어르신복지관","1153011000101550005000001","1153011000","1153079000","서울특별시 구로구 부일로9길 111(온수동)","258","99","","","126.823286","37.496673","184373.279312","544149.579662"
"7230","1153000000","364","서울특별시","구로구","001","학교","천왕중학교","1153011100101660003000003","1153011100","1153078000","서울특별시 구로구 천왕로 63(천왕동)","754","290","","","121.169846","36.146513","-324971.275894","410088.010312"
"7231","1153000000","361","서울특별시","구로구","001","학교","서울천왕초등학교","1153011100101720002000002","1153011100","1153078000","서울특별시 구로구 천왕로1길 11(천왕동)","759","292","","","126.836761","37.481579","185562.011040","542472.146329"
"7232","1153000000","343","서울특별시","구로구","001","학교","유한공업고등학교","1153011200100010046000128","1153011200","1153078000","서울특별시 구로구 경인로 8(항동)","858","330","박상준","","126.823975","37.488094","184432.433761","543197.271124"
"7233","1154500000","333","서울특별시","금천구","003","경로당","두산(아) 경로당","1154510100107690000015534","1154510100","1154551000","서울특별시 금천구 가산로 99(가산동, 두산위브아파트)","130","50","이남용","","126.893602","37.474079","190588.498483","541632.554548"
"7234","1154500000","345","서울특별시","금천구","004","관공서","금천노인종합복지관","1154510300105580001004801","1154510300","1154567000","서울특별시 금천구 시흥대로51길 93-32 (시흥동)","268","103","조현옥","","126.897819","37.450166","190958.599826","538978.148858"
"7235","1154500000","347","서울특별시","금천구","004","관공서","청담종합사회복지관","1154510300102410007015878","1154510300","1154568000","서울특별시 금천구 금하로29길 36(시흥동)","198","76","유영학","","126.913746","37.451290","192368.000176","539101.437060"
"7236","1154500000","339","서울특별시","금천구","003","경로당","구룡경로당","1154510200109520025006832","1154510200","1154563000","서울특별시 금천구 남부순환로122길 5(독산동)","99","38","이용학","","126.902206","37.479179","191350.088686","542197.799125"
"7237","1154500000","341","서울특별시","금천구","003","경로당","정심경로당","1154510200101960008016675","1154510200","1154564000","서울특별시 금천구 독산로75길 12-7 (독산동)","117","45","안소희","","126.901567","37.469468","191292.475262","541120.023861"
"7238","1154500000","335","서울특별시","금천구","004","관공서","금천어르신복지센터","1154510200102930014013030","1154510200","1154561000","서울특별시 금천구 범안로17길 22(독산동)","113","43","조영표","02-897-5104","126.886851","37.457940","189989.143748","539842.048067"
"7239","1154500000","356","서울특별시","금천구","004","관공서","시흥5동주민센터","1154510300109100005000747","1154510300","1154571000","서울특별시 금천구 금하로24길 6(시흥동)","165","63","오우석","","126.908302","37.452352","191886.377875","539219.828093"
"7240","1154500000","318","서울특별시","금천구","001","학교","신흥초등학교","1154510300107040056002182","1154510300","1154570000","서울특별시 금천구 독산로36나길 21(시흥동)","900","346","한미나","02-894-5149","126.908697","37.459412","191922.108697","540003.338140"
"7241","1154500000","319","서울특별시","금천구","001","학교","백산초등학교","1154510300104380005000920","1154510300","1154571000","서울특별시 금천구 시흥대로38길 78(시흥동)","900","346","은민정","02-803-8812","126.905004","37.447002","191594.006559","538626.255909"
"7242","1154500000","320","서울특별시","금천구","001","학교","시흥초등학교","1154510300108410019006625","1154510300","1154567000","서울특별시 금천구 독산로23길 26(시흥동)","900","346","김미숙","","126.904241","37.455456","191527.433243","539564.625664"
"7243","1154500000","321","서울특별시","금천구","001","학교","탑동초등학교","1154510300102300000004115","1154510300","1154568000","서울특별시 금천구 탑골로 47-3 (시흥동)","900","346","정성림","02-802-0716","126.914528","37.452725","192437.361329","539260.705724"
"7959","1111000000","23","서울특별시","종로구","001","학교","창신초등학교","1111017400101280032006350","1111017400","1111067000","서울특별시 종로구 지봉로 73(창신동)","660","253","한상희","02-763-3161","127.014352","37.576019","201267.806661","552941.399267"
"7960","1111000000","322","서울특별시","종로구","001","학교","서일국제경영고등학교","1111017400100130080002997","1111017400","1111069000","서울특별시 종로구 지봉로17길 49(창신동)","504","193","정휘정","02-763-6242","127.012866","37.579466","201136.515647","553323.982043"
"7961","1111000000","351","서울특별시","종로구","004","관공서","창신2동주민센터","1111017400105830003003772","1111017400","1111068000","서울특별시 종로구 창신길 62(창신동)","176","67","","","127.010802","37.574441","200954.190808","552766.239700"
"7962","1111000000","350","서울특별시","종로구","004","관공서","창신1동주민센터","1111017400104010003005307","1111017400","1111067000","서울특별시 종로구 지봉로 8-6 (창신동)","198","76","","","127.016230","37.570770","201433.799130","552358.839165"
"7963","1111000000","338","서울특별시","종로구","004","관공서","창신3동주민센터","1111017400100230816032084","1111017400","1111069000","서울특별시 종로구 지봉로 87(창신동, 창신이수아파트)","118","45","나창길","010-8269-5519","127.014730","37.578026","201301.179419","553164.189412"
"7964","1111000000","24","서울특별시","종로구","006","교회","창신제일교회","1111017400106350002003936","1111017400","1111068000","서울특별시 종로구 창신7길 7(창신동)","165","63","우기환","010-8908-0736","127.010071","37.575669","200889.657958","552902.533011"
"7965","1111000000","369","서울특별시","종로구","014","공공시설(국?공립도서관, 공립병원, 시?도민회관, 구민회관 주민체육시설, 노인병원, 어린이도서관 등)","종로구민회관","1111017400102220008006266","1111017400","1111067000","서울특별시 종로구 지봉로5길 7-5 (창신동)","953","366","원유호","","127.014372","37.573464","201269.595556","552657.782988"
"7966","1111000000","376","서울특별시","종로구","014","공공시설(국?공립도서관, 공립병원, 시?도민회관, 구민회관 주민체육시설, 노인병원, 어린이도서관 등)","종로종합사회복지관","1111017400100230344003333","1111017400","1111069000","서울특별시 종로구 지봉로13길 82(창신동)","1421","100","","","127.012486","37.577296","201102.919799","553083.108012"
"7967","1111000000","343","서울특별시","종로구","003","경로당","숭인상록경로당","1111017500100550002002882","1111017500","1111070000","서울특별시 종로구 지봉로 86(숭인동)","244","93","","","127.015593","37.577808","201377.414243","553139.957385"
"7968","1111000000","26","서울특별시","종로구","004","관공서","숭인1동주민센터","1111017500100550002002882","1111017500","1111070000","서울특별시 종로구 지봉로 86(숭인동)","770","296","이정은","02-2148-5492","127.015633","37.577836","201380.912614","553143.102270"
"7969","1111000000","340","서울특별시","종로구","004","관공서","숭인2동주민센터","1111017500101780167000939","1111017500","1111071000","서울특별시 종로구 종로65길 10(숭인동)","256","98","이근수","02-2148-5512","127.019986","37.574886","201765.514215","552815.793560"
"7970","1111000000","339","서울특별시","종로구","007","기타시설","도담도담도서관","1111017500107500000001678","1111017500","1111071000","서울특별시 종로구 숭인동길 43(숭인동)","108","41","김영자","010-3663-5513","127.021835","37.576925","201928.750922","553042.108751"
"7971","1111000000","370","서울특별시","종로구","014","공공시설(국?공립도서관, 공립병원, 시?도민회관, 구민회관 주민체육시설, 노인병원, 어린이도서관 등)","아름꿈도서관","1111017500102420007001250","1111017500","1111071000","서울특별시 종로구 종로58가길 19(숭인동)","639","245","이해수","","127.017131","37.572687","201513.304297","552571.598050"
"7972","1111000000","16","서울특별시","종로구","001","학교","대신고등학교","1111018100101710010020841","1111018100","1111058000","서울특별시 종로구 사직로 9(행촌동)","1976","760","조철환","02-736-0317","126.961717","37.573343","196618.122457","552644.989630"
"7973","1111000000","347","서울특별시","종로구","004","관공서","교남동주민센터","1111018100101800010031895","1111018100","1111058000","서울특별시 종로구 송월길 154(행촌동)","313","120","","","126.961947","37.571912","196638.338997","552486.204700"
"7974","1111000000","14","서울특별시","종로구","001","학교","서울예술고등학교","1111018300102170000023388","1111018300","1111056000","서울특별시 종로구 평창문화로 70(평창동)","489","188","이도민","010-2362-6920","126.968665","37.605467","197233.084309","556210.150764"
"7975","1111000000","333","서울특별시","종로구","004","관공서","평창동주민센터","1111018300101860003000001","1111018300","1111056000","서울특별시 종로구 평창문화로 65(평창동)","108","41","김주현","02-2148-5139","126.968398","37.606371","197209.568214","556310.471658"
"7976","1111000000","373","서울특별시","종로구","013","연수,숙박","동화 킴스호텔","1111018300100660050022012","1111018300","1111056000","서울특별시 종로구 평창문화로 136(평창동)","9900","120","","","126.975119","37.609602","197803.070097","556668.928835"
"7979","1114000000","42","서울특별시","중구","003","경로당","을지경로당","1114015000101780001023290","1114015000","1114060500","서울특별시 중구 을지로28길 16(을지로4가)","112","43","김성식","02-2274-2077","126.998887","37.565963","199901.645267","551825.223903"
"7980","1114000000","50","서울특별시","중구","007","기타시설","훈련원공원 종합체육관","1114015100100400003013726","1114015100","1114060500","서울특별시 중구 을지로 227(을지로5가)","747","287","박문수","02-2280-8399","127.003879","37.567387","200342.677030","551983.303249"
"7981","1114000000","7","서울특별시","중구","006","교회","을지로교회","1114016000100310000013044","1114016000","1114060500","서울특별시 중구 을지로20길 24-10 (인현동1가)","858","330","안재평","02-2266-3070","126.994890","37.565632","199548.529395","551788.450750"
"7982","1114000000","8","서울특별시","중구","001","학교","한양공업고등학교","1114016200102240002000204","1114016200","1114061500","서울특별시 중구 을지로 299(신당동)","8617","3314","변진석","010-6215-1169","127.011467","37.565597","201013.080701","551784.673407"
"7983","1114000000","9","서울특별시","중구","001","학교","장충초등학교","1114016200103860086007812","1114016200","1114062500","서울특별시 중구 청구로17길 40(신당동)","567","218","이우석","2234-1795","127.011105","37.559466","200981.153493","551104.195264"
"7984","1114000000","56","서울특별시","중구","001","학교","성동글로벌경영고등학교","1114016200102500034009747","1114016200","1114061500","서울특별시 중구 퇴계로 375(신당동)","554","213","이수영","02-6360-1502","127.012995","37.565826","201148.101261","551810.042922"
"7985","1114000000","54","서울특별시","중구","001","학교","광희초등학교","1114016200102540018011394","1114016200","1114061500","서울특별시 중구 다산로 269(신당동)","655","252","류은주","02-2238-3918","127.015117","37.567396","201335.525090","551984.360314"
"7986","1114000000","53","서울특별시","중구","001","학교","성동고등학교","1114016200101610000004880","1114016200","1114065000","서울특별시 중구 퇴계로90길 17(신당동)","877","337","박종옥","02-2237-2412","127.022898","37.564162","202023.023218","551625.607654"
"7987","1114000000","43","서울특별시","중구","003","경로당","신당경로당","1114016200103040738023346","1114016200","1114061500","서울특별시 중구 다산로29길 10(신당동)","144","55","방순숙","02-2234-5116","127.013551","37.561100","201197.300002","551285.607149"
"7988","1114000000","44","서울특별시","중구","003","경로당","다산경로당","1114016200103860066000001","1114016200","1114062500","서울특별시 중구 동호로12길 97(신당동)","342","132","정영일","02-2238-3357","127.012067","37.559561","201066.185261","551114.689687"
"7989","1111000000","366","서울특별시","종로구","006","교회","서울복음교회","1111016400102100001013374","1111016400","1111063000","서울특별시 종로구 율곡로 264(종로6가)","216","83","황옥연","","127.006608","37.573322","200583.734673","552641.979360"
"7990","1111000000","319","서울특별시","종로구","001","학교","서울사대부설여자중학교","1111016800101990001010687","1111016500","1111064000","서울특별시 종로구 대학로 64(이화동)","260","100","김면중","762-5251","127.003732","37.577881","200329.624489","553148.018379"
"7991","1111000000","368","서울특별시","종로구","004","관공서","이화동주민센터","1111016500101490001010781","1111016500","1111064000","서울특별시 종로구 이화장길 33(이화동)","279","107","박영실","","127.004333","37.576936","200382.753993","553043.068828"
"7244","1154500000","357","서울특별시","금천구","001","학교","문일고등학교","1154510300105590001004671","1154510300","1154567000","서울특별시 금천구 시흥대로47길 45(시흥동)","1851","711","지한경","","126.898249","37.449493","190996.561186","538903.415130"
"7245","1154500000","348","서울특별시","금천구","002","마을회관","박미사랑마을회관","1154510300109570011016434","1154510300","1154569000","서울특별시 금천구 시흥대로12길 82(시흥동)","165","63","심영보","","126.907438","37.440301","191808.660223","537882.411960"
"7246","1154500000","350","서울특별시","금천구","004","관공서","금천문화원","1154510300109370009000001","1154510300","1154569000","서울특별시 금천구 시흥대로38길 61(시흥동)","198","76","이종학","02-896-8552","126.904543","37.447408","191553.254888","538671.401881"
"7247","1154500000","352","서울특별시","금천구","004","관공서","남부여성발전센터","1154510300201390002001767","1154510300","1154570000","서울특별시 금천구 독산로50길 23(시흥동)","231","88","이상욱","","126.906036","37.463260","191687.088648","540430.663992"
"7248","1156000000","472","서울특별시","영등포구","014","공공시설(국?공립도서관, 공립병원, 시?도민회관, 구민회관 주민체육시설, 노인병원, 어린이도서관 등)","영등포제2스포츠센터","1156011400100960001000001","1156011400","1156056000","서울특별시 영등포구 국회대로 615(당산동4가)","553","213","김덕인","02-2630-2972","126.902818","37.526488","191409.657061","547448.402217"
"7249","1156000000","443","서울특별시","영등포구","003","경로당","구립당산2동경로당","1156011600101840000000001","1156011600","1156056000","서울특별시 영등포구 당산로48길 16(당산동6가)","122","47","유정길","02-2676-9460","126.904013","37.534943","191516.267114","548386.726550"
"7250","1156000000","418","서울특별시","영등포구","001","학교","서울영동초등학교","1156011700101210022028717","1156011700","1156056000","서울특별시 영등포구 국회대로53길 20(당산동)","620","238","김추원","02-2635-0576","126.907652","37.526869","191837.056420","547490.282350"
"7251","1156000000","399","서울특별시","영등포구","001","학교","당산중학교","1156011700101210000000001","1156011700","1156056000","서울특별시 영등포구 버드나루로 160(당산동)","540","208","임성희","02-2177-9903","126.907579","37.532113","191831.175497","548072.226798"
"7252","1156000000","444","서울특별시","영등포구","003","경로당","구립모랫말경로당","1156011800102050023025406","1156011800","1156058500","서울특별시 영등포구 도영로 41(도림동)","176","68","김재원","02-811-4138","126.897486","37.509707","190936.336077","545586.425866"
"7253","1154500000","337","서울특별시","금천구","004","관공서","독산2동주민센터","1154510200110430051017080","1154510200","1154562000","서울특별시 금천구 독산로 179(독산동)","174","66","이정미","","126.903521","37.463168","191464.640215","540420.648135"
"7254","1154500000","343","서울특별시","금천구","004","관공서","독산4동주민센터","1154510200110220000017056","1154510200","1154564000","서울특별시 금천구 독산로 232(독산동)","181","69","송오섭","02-2104-5330","126.902134","37.467578","191342.380513","540910.263770"
"7255","1154500000","334","서울특별시","금천구","004","관공서","독산1동주민센터","1154510200102890005016138","1154510200","1154561000","서울특별시 금천구 시흥대로123길 11(독산동)","303","116","송유근","","126.897043","37.470228","190892.382840","541204.828099"
"7256","1154500000","340","서울특별시","금천구","004","관공서","독산3동주민센터","1154510200109730017000001","1154510200","1154563000","서울특별시 금천구 독산로 317(독산동)","206","79","오성환","02-2104-5300","126.903178","37.475145","191435.593726","541749.913568"
"7257","1154500000","342","서울특별시","금천구","004","관공서","금천호암노인종합복지관","1154510200109170006007732","1154510200","1154564000","서울특별시 금천구 독산로72길 86-5 (독산동)","114","43","김성곤","02-2104-5347","126.906442","37.469458","191723.694622","541118.471151"
"7258","1154500000","336","서울특별시","금천구","006","교회","신일교회","1154510200110600018016576","1154510200","1154562000","서울특별시 금천구 시흥대로90길 25(독산동)","250","96","조진광","","126.899289","37.461778","191090.045768","540266.806718"
"7259","1154500000","361","서울특별시","금천구","014","공공시설(국?공립도서관, 공립병원, 시?도민회관, 구민회관 주민체육시설, 노인병원, 어린이도서관 등)","금나래문화체육센터","1154510200111480000000001","1154510200","1154561000","서울특별시 금천구 시흥대로79길 32(독산동)","1567","200","","","126.895998","37.458838","190798.539568","539940.775515"
"7260","1154500000","362","서울특별시","금천구","014","공공시설(국?공립도서관, 공립병원, 시?도민회관, 구민회관 주민체육시설, 노인병원, 어린이도서관 등)","독산어르신체육센터","1154510200102340086016883","1154510200","1154563000","서울특별시 금천구 독산로54길 279(독산동)","438","150","","","126.905802","37.474353","191667.614697","541661.796750"
"7261","1154500000","360","서울특별시","금천구","014","공공시설(국?공립도서관, 공립병원, 시?도민회관, 구민회관 주민체육시설, 노인병원, 어린이도서관 등)","금천구민문화체육센터","1154510200108260007015979","1154510200","1154564000","서울특별시 금천구 독산로54길 188(독산동)","500","200","","","126.907278","37.470268","191797.762635","541208.356995"
"7262","1154500000","19","서울특별시","금천구","001","학교","금천초등학교","1154510300102180001016326","1154510300","1154571000","서울특별시 금천구 탑골로5길 60(시흥동)","810","311","이은영","02-802-7293","126.912774","37.453519","192282.205244","539348.886677"
"7263","1154500000","314","서울특별시","금천구","001","학교","금동초등학교","1154510300110130001015981","1154510300","1154568000","서울특별시 금천구 금하로30길 53(시흥동)","900","346","백서연","","126.919048","37.447907","192836.790855","538725.602511"
"7264","1154500000","315","서울특별시","금천구","001","학교","문백초등학교","1154510300105640005004706","1154510300","1154567000","서울특별시 금천구 시흥대로47길 43-1 (시흥동)","900","346","김희정","","126.899272","37.447090","191086.775865","538636.584981"
"7265","1154500000","317","서울특별시","금천구","001","학교","금산초등학교","1154510300200060018017183","1154510300","1154569000","서울특별시 금천구 시흥대로24길 57(시흥동)","500","192","이은영","","126.907959","37.441529","191854.890759","538018.614291"
"7266","1154500000","349","서울특별시","금천구","007","기타시설","하누리주간보호센터","1154510300109720004003877","1154510300","1154569000","서울특별시 금천구 시흥대로2길 57(시흥동)","132","50","이미순","","126.906425","37.435236","191718.457628","537320.367978"
"7267","1156000000","425","서울특별시","영등포구","001","학교","서울영원초등학교","1156010100106470002037065","1156010100","1156051500","서울특별시 영등포구 도영로22길 31(영등포동)","590","227","신환철","02-831-6691","126.902334","37.510712","191365.075111","545697.506606"
"7268","1156000000","424","서울특별시","영등포구","001","학교","영원중학교","1156010100105760006037076","1156010100","1156051500","서울특별시 영등포구 영등포로62길 31(영등포동)","513","197","이관웅","02-847-2634","126.913732","37.515559","192373.284627","546234.467223"
"7269","1156000000","440","서울특별시","영등포구","003","경로당","구립영등포본동경로당","1156010100106200050000001","1156010100","1156051500","서울특별시 영등포구 영신로9나길 7(영등포동)","292","112","하남순","02-3457-7037","126.906682","37.512955","191749.724240","545946.054349"
"7270","1156000000","464","서울특별시","영등포구","004","관공서","영등포본동주민센터","1156010100105920070000001","1156010100","1156051500","서울특별시 영등포구 신길로61길 17(영등포동)","75","29","이진희","02-2670-1025","126.909393","37.514712","191989.592041","546140.798199"
"7271","1156000000","465","서울특별시","영등포구","004","관공서","영등포동주민센터","1156010300102220002033878","1156010300","1156053500","서울특별시 영등포구 영등포로53길 22(영등포동2가)","336","129","이시헌","02-2670-1054","126.910637","37.520314","192100.218898","546762.449935"
"7272","1156000000","410","서울특별시","영등포구","001","학교","서울영중초등학교","1156010800100530000032736","1156010800","1156053500","서울특별시 영등포구 양산로 185(영등포동7가)","198","76","유성희","02-2633-7844","126.903964","37.523812","191510.690751","547151.296559"
"7273","1156000000","474","서울특별시","영등포구","013","연수,숙박","하이서울유스호스텔","1156010800100590001000001","1156010800","1156053500","서울특별시 영등포구 영신로 200(영등포동7가)","9807","330","김기만","","126.903438","37.525598","191464.365331","547349.514670"
"7274","1156000000","458","서울특별시","영등포구","014","공공시설(국?공립도서관, 공립병원, 시?도민회관, 구민회관 주민체육시설, 노인병원, 어린이도서관 등)","영등포동주민자치회관","1156010800100590004032061","1156010800","1156053500","서울특별시 영등포구 국회대로44길 4(영등포동7가)","196","75","이현지","02-2670-1055","126.903608","37.525383","191479.421198","547325.719009"
"7275","1156000000","417","서울특별시","영등포구","001","학교","여의도고등학교","1156011000100300001031125","1156011000","1156054000","서울특별시 영등포구 국제금융로7길 37(여의도동)","986","379","윤혜영","782-0852","126.934120","37.525059","194176.507872","547287.349400"
"7992","1111000000","332","서울특별시","종로구","007","기타시설","종로노인종합복지관","1111016500100250001000001","1111016500","1111064000","서울특별시 종로구 율곡로19길 17-8 (이화동)","389","149","김일준","02-742-9500","127.006028","37.576720","200532.470380","553019.078043"
"8992","1159000000","98","서울특별시","동작구","001","학교","중앙대학교 체육관","1159010500102210000017773","1159010500","1159060500","서울특별시 동작구 흑석로 84(흑석동)","941","361","박상규","","126.955559","37.504522","196070.523473","545006.890319"
"8993","1159000000","89","서울특별시","동작구","001","학교","동작중학교","1159010600200090001013006","1159010600","1159063000","서울특별시 동작구 동작대로39가길 83(동작동)","539","207","이종화","","126.976271","37.495084","197901.619478","543958.726944"
"8994","1159000000","23","서울특별시","동작구","001","학교","남성중학교","1159010700103040045007061","1159010700","1159065000","서울특별시 동작구 남부순환로269길 166(사당동)","1188","456","김천종","02-520-7588","126.972489","37.478825","197566.676188","542154.373571"
"8995","1159000000","67","서울특별시","동작구","001","학교","남사초등학교","1159010700110110001009955","1159010700","1159062000","서울특별시 동작구 동작대로13길 22(사당동)","180","69","남순영","010-8787-2304","126.978862","37.482344","198130.438850","542544.712376"
"8996","1159000000","54","서울특별시","동작구","001","학교","동작고등학교","1159010700102360007006121","1159010700","1159065100","서울특별시 동작구 솔밭로 51(사당동)","3240","1246","이호둔","010-2905-7437","126.965239","37.482236","196925.477051","542533.155636"
"8997","1159000000","59","서울특별시","동작구","001","학교","서울남성초등학교","1159010700103240018007885","1159010700","1159064000","서울특별시 동작구 사당로23길 57-14 (사당동)","804","309","봉하창","010-6363-4939","126.975809","37.484610","197860.419552","542796.326589"
"8998","1159000000","90","서울특별시","동작구","001","학교","사당중학교","1159010700102090016008599","1159010700","1159064000","서울특별시 동작구 사당로9가길 58(사당동)","1131","435","이수형","010-2566-6703","126.968895","37.487813","197249.045962","543151.977952"
"8999","1159000000","88","서울특별시","동작구","001","학교","서울동작초등학교","1159010700200090001013549","1159010700","1159063000","서울특별시 동작구 동작대로29길 214(사당동)","922","354","정정남","02-537-1072","126.976509","37.494105","197922.677039","543850.124266"
"9000","1159000000","80","서울특별시","동작구","001","학교","서울삼일초등학교","1159010700200180036000001","1159010700","1159064000","서울특별시 동작구 사당로23나길 27(사당동)","630","242","최갑숙","010-3715-8298","126.975203","37.488285","197806.929265","543204.153703"
"9001","1156000000","402","서울특별시","영등포구","001","학교","대림중학교","1156013300109590000004645","1156013300","1156070000","서울특별시 영등포구 시흥대로185길 6(대림동)","711","273","오영숙","02-845-2171","126.907674","37.492424","191835.234165","543667.272252"
"9002","1156000000","420","서울특별시","영등포구","001","학교","서울영림초등학교","1156013300109930016003883","1156013300","1156071000","서울특별시 영등포구 시흥대로173길 14(대림동)","567","218","하현주","02-834-3184","126.902506","37.487352","191377.603583","543104.803125"
"9003","1156000000","415","서울특별시","영등포구","001","학교","서울신영초등학교","1156013300107810000000843","1156013300","1156072000","서울특별시 영등포구 도신로4길 32(대림동)","552","212","권성희","02-833-2583","126.895334","37.500499","190744.955469","544564.693081"
"9004","1156000000","447","서울특별시","영등포구","003","경로당","구립양평4가경로당","1156012800102380001000001","1156012800","1156062000","서울특별시 영등포구 양평로20길 14-1 (양평동4가)","387","149","신석주","02-2068-7906","126.896219","37.538229","190827.756686","548752.113016"
"9005","1156000000","477","서울특별시","영등포구","004","관공서","양평2동주민센터","1156012800100960000000001","1156012800","1156062000","서울특별시 영등포구 선유로47길 30(양평동4가)","570","219","성은영","02-2670-1214","126.893998","37.536458","190631.321842","548555.779162"
"9006","1162000000","387","서울특별시","관악구","001","학교","은천초등학교","1162010100106220001027857","1162010100","1162060500","서울특별시 관악구 은천로 69(봉천동)","8590","3303","송민경","010-2212-9343","126.943129","37.486838","194970.267620","543044.867142"
"9007","1162000000","392","서울특별시","관악구","001","학교","영락고등학교","1162010100115580001035384","1162010100","1162059500","서울특별시 관악구 청룡16길 25(봉천동)","1076","413","강기영","02-884-1006","126.945721","37.476578","195198.821850","541905.959407"
"9008","1162000000","395","서울특별시","관악구","001","학교","서울관광고등학교","1162010100116940000027653","1162010100","1162060500","서울특별시 관악구 은천로15길 25(봉천동)","432","166","김옥기","02-886-9165","126.943770","37.487846","195027.070192","543156.681134"
"9009","1162000000","388","서울특별시","관악구","001","학교","청룡초등학교","1162010100103900003035391","1162010100","1162059500","서울특별시 관악구 관악로5길 61(봉천동)","340","130","김영숙","02-871-5988","126.951289","37.475877","195691.359032","541827.870683"
"9010","1162000000","397","서울특별시","관악구","001","학교","봉천초등학교","1162010100101000015032168","1162010100","1162057500","서울특별시 관악구 행운1라길 17(봉천동)","1126","433","","887-8573","126.957873","37.482654","196274.043229","542579.766347"
"9011","1162000000","389","서울특별시","관악구","001","학교","구암중학교","1162010100117120005033972","1162010100","1162056500","서울특별시 관악구 성현로 53(봉천동)","525","201","민흥식","02-881-2903","126.948362","37.492677","195433.450632","543692.675984"
"9012","1162000000","391","서울특별시","관악구","001","학교","당곡고등학교","1162010100106790000039048","1162010100","1162052500","서울특별시 관악구 봉천로21길 108(봉천동)","382","146","김정천","02-6717-5104","126.934727","37.491691","194227.606869","543583.972779"
"9013","1162000000","394","서울특별시","관악구","001","학교","인헌고등학교","1162010100101740005025562","1162010100","1162062500","서울특별시 관악구 인헌9길 74(봉천동)","794","305","박기상","02-886-6253","126.970026","37.471717","197348.566421","541365.535285"
"9014","1162000000","379","서울특별시","관악구","001","학교","관악중학교","1162010100101000569032006","1162010100","1162057500","서울특별시 관악구 남부순환로237길 60(봉천동)","580","223","","","126.962009","37.480729","196639.721510","542365.963555"
"9015","1156000000","408","서울특별시","영등포구","001","학교","서울도신초등학교","1156013300107410003001128","1156013300","1156072000","서울특별시 영등포구 도림로53길 32-9 (대림동)","360","138","최성아","02-835-1504","126.901190","37.498718","191262.570279","544366.438720"
"9016","1156000000","414","서울특별시","영등포구","001","학교","서울신대림초등학교","1156013300109680000005275","1156013300","1156070000","서울특별시 영등포구 대림로8길 25(대림동)","663","255","노수현","02-849-0738","126.905601","37.492076","191651.862038","543628.807322"
"9017","1156000000","455","서울특별시","영등포구","003","경로당","구립대림1경로당","1156013300108990002005798","1156013300","1156070000","서울특별시 영등포구 디지털로 441(대림동)","60","23","김종록","02-834-6898","126.906022","37.495431","191689.413607","544001.179091"
"9018","1156000000","457","서울특별시","영등포구","003","경로당","동심경로당","1156013300107420000000716","1156013300","1156072000","서울특별시 영등포구 대림로35길 7(대림동)","132","50","김영국","02-2670-1446","126.897297","37.498644","190918.270849","544358.615327"
"9019","1156000000","456","서울특별시","영등포구","003","경로당","구립다사랑경로당","1156013300107030006002395","1156013300","1156071000","서울특별시 영등포구 대림로23가길 5(대림동)","192","74","장광덕","02-3457-7931","126.899476","37.492732","191110.235906","543702.249959"
"9020","1156000000","437","서울특별시","영등포구","006","교회","수정성결교회","1156013300106650011000694","1156013300","1156072000","서울특별시 영등포구 가마산로 357(대림동)","300","115","서형남","02-849-9191","126.898138","37.500729","190992.854775","544589.858253"
"9021","1156000000","460","서울특별시","영등포구","014","공공시설(국?공립도서관, 공립병원, 시?도민회관, 구민회관 주민체육시설, 노인병원, 어린이도서관 등)","대림정보문화도서관","1156013300106080002000001","1156013300","1156072000","서울특별시 영등포구 도신로 27(대림동)","216","83","김희종","02-828-3706","126.896054","37.504313","190809.018174","544987.917526"
"9022","1159000000","12","서울특별시","동작구","001","학교","강현중학교","1159010200103350005026047","1159010200","1159055000","서울특별시 동작구 상도로13라길 22(상도동)","680","261","김화중","010-4562-8599","126.931101","37.503075","193907.808900","544847.681886"
"9023","1159000000","11","서울특별시","동작구","001","학교","서울신상도초등학교","1159010200102040333026309","1159010200","1159054000","서울특별시 동작구 장승배기로 14(상도동)","530","203","오장길","","126.944064","37.500276","195053.813444","544536.217802"
"7276","1156000000","426","서울특별시","영등포구","001","학교","서울윤중초등학교","1156011000100380000031498","1156011000","1156054000","서울특별시 영등포구 여의나루로2길 14(여의도동)","689","265","이은아","02-783-6727","126.922893","37.519797","193183.578315","546704.103094"
"7277","1156000000","441","서울특별시","영등포구","003","경로당","구립시범(아)경로당","1156011000100500002000001","1156011000","1156054000","서울특별시 영등포구 63로 45(여의도동, 여의도시범아파트)","165","63","최정균","02-786-8765","126.937024","37.520576","194432.872945","546789.627788"
"7278","1156000000","463","서울특별시","영등포구","004","관공서","여의동주민센터","1156011000100050008000001","1156011000","1156054000","서울특별시 영등포구 국제금융로 124(여의도동)","140","54","이윤정","02-2670-1083","126.934514","37.517647","194210.772076","546464.730431"
"7279","1156000000","442","서울특별시","영등포구","003","경로당","구립당산3가경로당","1156011300104090000000002","1156011300","1156055000","서울특별시 영등포구 당산로29길 9(당산동3가)","132","51","윤영숙","2670-1687","126.893950","37.526029","190625.769943","547398.317905"
"7280","1156000000","466","서울특별시","영등포구","004","관공서","당산1동주민센터","1156011300102500000029028","1156011300","1156055000","서울특별시 영등포구 양산로23길 11(당산동3가)","175","67","김계현","0226701106","126.897308","37.525013","190922.443726","547285.158626"
"7281","1156000000","430","서울특별시","영등포구","006","교회","당산천주교회(당산동성당)","1156011300100790000029027","1156011300","1156055000","서울특별시 영등포구 당산로28길 11(당산동3가)","300","115","김윤애","02-2068-0102","126.898029","37.524937","190986.130157","547276.734189"
"7282","1156000000","476","서울특별시","영등포구","013","연수,숙박","SL모텔","1156011300103860007028865","1156011300","1156055000","서울특별시 영등포구 당산로33길 3(당산동3가)","1030","64","김정산","","126.896331","37.527062","190836.291806","547512.747963"
"7283","1156000000","462","서울특별시","영등포구","004","관공서","당산2동주민센터","1156011400100800005000001","1156011400","1156056000","서울특별시 영등포구 당산로41가길 7(당산동4가)","355","137","조혜진","02-2670-1140","126.897263","37.531003","190919.171819","547950.057582"
"7297","1154500000","351","서울특별시","금천구","004","관공서","시흥3동주민센터","1154510300109560003004004","1154510300","1154569000","서울특별시 금천구 시흥대로18길 40(시흥동)","198","76","박복술","","126.905828","37.440277","191666.143855","537879.859515"
"7298","1154500000","353","서울특별시","금천구","004","관공서","시흥4동주민센터","1154510300108120038000001","1154510300","1154570000","서울특별시 금천구 독산로36길 14(시흥동)","132","50","김미희","02-2104-5460","126.906175","37.458948","191698.911811","539952.087498"
"7299","1154500000","344","서울특별시","금천구","004","관공서","시흥1동주민센터","1154510300108860006000001","1154510300","1154567000","서울특별시 금천구 시흥대로58길 36(시흥동)","314","120","박종찬","02-2104-5360","126.903269","37.453569","191441.262783","539355.312438"
"7300","1154500000","346","서울특별시","금천구","004","관공서","금천종합복지타운","1154510300102670009000001","1154510300","1154568000","서울특별시 금천구 금하로 764(시흥동)","473","181","박재완","02-2104-5400","126.914474","37.449673","192432.231557","538921.889360"
"7301","1154500000","354","서울특별시","금천구","006","교회","시흥감리교회","1154510300108260010000479","1154510300","1154571000","서울특별시 금천구 금하로23나길 9(시흥동)","181","69","손석동","","126.909369","37.452254","191980.817125","539208.856732"
"7302","1154500000","355","서울특별시","금천구","006","교회","예향교회","1154510300108360020000541","1154510300","1154571000","서울특별시 금천구 금하로21길 9(시흥동)","165","63","이기영","","126.907983","37.451927","191858.138892","539172.670917"
"9024","1159000000","13","서울특별시","동작구","001","학교","서울상도초등학교","1159010200102380002020971","1159010200","1159056000","서울특별시 동작구 성대로21길 62(상도동)","680","261","권병진","02-822-0078","126.937230","37.499710","194449.542300","544473.794599"
"9025","1159000000","49","서울특별시","동작구","001","학교","국사봉중학교","1159010200102140437021332","1159010200","1159056000","서울특별시 동작구 양녕로20길 20(상도동)","907","348","최화섭","","126.945022","37.493712","195138.159311","543807.625919"
"9026","1159000000","87","서울특별시","동작구","001","학교","숭실대학교","1159010200105110000033836","1159010200","1159053000","서울특별시 동작구 상도로 369(상도동)","851","327","황준성","","126.958280","37.497243","196310.790126","544198.955294"
"9027","1162000000","384","서울특별시","관악구","001","학교","남서울중학교","1162010200116900003003814","1162010200","1162076500","서울특별시 관악구 남부순환로172길 97(신림동)","863","331","장민석","","126.921469","37.481895","193054.189933","542497.638173"
"9028","1162000000","383","서울특별시","관악구","001","학교","신관중학교","1162010200201680010021677","1162010200","1162064500","서울특별시 관악구 신림로48길 17-16 (신림동)","935","359","","","126.933953","37.480276","194158.234740","542317.124071"
"9029","1162000000","422","서울특별시","관악구","001","학교","신림초등학교","1162010200116270075020518","1162010200","1162065500","서울특별시 관악구 문성로28길 31(신림동)","630","191","","","122.000000","44.000000","-201049.072827","1278496.044912"
"9030","1162000000","410","서울특별시","관악구","013","연수,숙박","젤모텔","1162010200114220021013751","1162010200","1162069500","서울특별시 관악구 남부순환로181길 4(신림동)","108","14","","","126.931109","37.484738","193907.063075","542812.508216"
"9031","1159000000","100","서울특별시","동작구","013","연수,숙박","코자자모텔","1159010700101470050011895","1159010700","1159062000","서울특별시 동작구 사당로30길 5(사당동)","11","20","","02-820-9545","126.981122","37.484747","198330.395038","542811.425390"
"9032","1159000000","96","서울특별시","동작구","014","공공시설(국?공립도서관, 공립병원, 시?도민회관, 구민회관 주민체육시설, 노인병원, 어린이도서관 등)","사당종합체육관","1159010700200210009000001","1159010700","1159064000","서울특별시 동작구 사당로27길 232(사당동)","2495","959","김영필","820-1268","126.969538","37.492666","197306.098558","543690.598549"
"9033","1159000000","45","서울특별시","동작구","001","학교","영등포고등학교","1159010800100130002005389","1159010800","1159066000","서울특별시 동작구 등용로8길 5(대방동)","873","335","이준용","010-4021-6170","126.933666","37.508253","194135.046017","545422.154950"
"9034","1159000000","25","서울특별시","동작구","001","학교","서울대림초등학교","1159010800103910062005145","1159010800","1159066000","서울특별시 동작구 대방동1길 22(대방동)","880","338","한철수","010-4172-4078","126.925733","37.500648","193432.955004","544578.680553"
"9035","1159000000","55","서울특별시","동작구","001","학교","서울공업고등학교","1159010800103900005003457","1159010800","1159066000","서울특별시 동작구 대방동1길 46(대방동)","717","275","이재근","02-2082-1801","126.922383","37.501597","193136.837628","544684.169718"
"9036","1159000000","93","서울특별시","동작구","001","학교","영등포중학교","1159010800100130002005389","1159010800","1159066000","서울특별시 동작구 등용로8길 5(대방동)","861","331","이경운","010-4172-4078","126.934257","37.507527","194187.256682","545341.544889"
"9037","1159000000","92","서울특별시","동작구","001","학교","서울영화초등학교","1159010800100440003004606","1159010800","1159066000","서울특별시 동작구 등용로8길 3(대방동)","772","296","이옥희","010-9964-9781","126.932717","37.509224","194051.177697","545530.054173"
"9038","1159000000","94","서울특별시","동작구","001","학교","강남중학교","1159010800103900005005428","1159010800","1159066000","서울특별시 동작구 대방동15길 29(대방동)","593","228","이명희","010-4948-0798","126.921876","37.502788","193092.124580","544816.421303"
"9039","1159000000","91","서울특별시","동작구","001","학교","서울신길초등학교","1159010800103510006033968","1159010800","1159066000","서울특별시 동작구 알마타길 16(대방동)","351","135","윤경혜","010-6313-5032","126.926322","37.510068","193485.883925","545624.064298"
"9040","1159000000","99","서울특별시","동작구","004","관공서","대방동주민센터","1159010800103500008003752","1159010800","1159066000","서울특별시 동작구 여의대방로44길 20(대방동)","231","88","정해영","","126.926254","37.508174","193479.678826","545413.935793"
"9041","1159000000","43","서울특별시","동작구","001","학교","수도여자고등학교","1159010900104700013001619","1159010900","1159068000","서울특별시 동작구 여의대방로10길 73(신대방동)","202","77","김연배","010-3257-5095","126.915514","37.493069","192528.613568","543738.242109"
"9042","1159000000","26","서울특별시","동작구","001","학교","서울문창초등학교","1159010900106400000002022","1159010900","1159067000","서울특별시 동작구 신대방2길 14(신대방동)","1014","390","김광옥","02-836-2033","126.913912","37.488915","192386.537143","543277.293133"
"9043","1159000000","27","서울특별시","동작구","001","학교","문창중학교","1159010900103640058000573","1159010900","1159068000","서울특별시 동작구 여의대방로22나길 40(신대방동)","2415","928","이명희","02-821-8587","126.921772","37.495826","193082.264342","544043.734893"
"9044","1159000000","66","서울특별시","동작구","001","학교","대방중학교","1159010900104920200002498","1159010900","1159067000","서울특별시 동작구 여의대방로10길 24(신대방동)","952","366","장보성","010-3060-5894","126.913763","37.495166","192373.992692","543971.063344"
"9045","1159000000","95","서울특별시","동작구","001","학교","서울보라매초등학교","1159010900104880001000788","1159010900","1159068000","서울특별시 동작구 여의대방로16길 30(신대방동)","1092","420","김갑철","010-2016-4689","126.916228","37.496004","192592.071585","544063.896881"
"9046","1159000000","97","서울특별시","동작구","014","공공시설(국?공립도서관, 공립병원, 시?도민회관, 구민회관 주민체육시설, 노인병원, 어린이도서관 등)","동작구민체육센터","1159010900104600001001618","1159010900","1159068000","서울특별시 동작구 여의대방로16길 53(신대방동)","701","269","차용열","","126.916805","37.494779","192642.908398","543927.861558"
"9047","1162000000","386","서울특별시","관악구","001","학교","구암고등학교","1162010100117120025000001","1162010100","1162056500","서울특별시 관악구 성현로 57(봉천동)","852","327","임선희","010-3413-0970","126.950288","37.492360","195603.709218","543657.370393"
"9048","1162000000","18","서울특별시","관악구","001","학교","남부초등학교","1162010200104670000014771","1162010200","1162068500","서울특별시 관악구 남부순환로163길 14(신림동)","612","235","","010-7227-0134","126.922099","37.484888","193110.219845","542829.740798"
"9049","1162000000","335","서울특별시","관악구","001","학교","조원초등학교","1162010200105480002008958","1162010200","1162072500","서울특별시 관악구 조원로 67(신림동)","1271","488","최외득","","126.909517","37.484162","191997.268484","542750.150674"
"9050","1162000000","393","서울특별시","관악구","001","학교","난우중학교","1162010200106520156001548","1162010200","1162077500","서울특별시 관악구 난곡로16길 32(신림동)","766","294","윤치영","02-863-7225","126.922680","37.466630","193159.934490","540803.261693"
"9051","1162000000","390","서울특별시","관악구","001","학교","미성중학교","1162010200107450024003768","1162010200","1162076500","서울특별시 관악구 문성로16길 40(신림동)","587","225","이범원","02-860-0999","126.912426","37.475216","192253.670712","541757.084810"
"9052","1162000000","369","서울특별시","관악구","001","학교","신성초등학교","1162010200101170004018623","1162010200","1162066500","서울특별시 관악구 신림로 114(신림동)","758","291","","02-875-7614","126.936633","37.471587","194394.600032","541352.552001"
"9053","1162000000","357","서울특별시","관악구","001","학교","난우초등학교","1162010200105890001001692","1162010200","1162076500","서울특별시 관악구 난우길 40(신림동)","501","192","여경원","","126.917696","37.476578","192719.948397","541907.810375"
"9054","1162000000","362","서울특별시","관악구","001","학교","신우초등학교","1162010200103150000004451","1162010200","1162074500","서울특별시 관악구 호암로 498(신림동)","889","341","","02-874-9816","126.932425","37.462739","194021.684073","540370.756129"
"9055","1162000000","363","서울특별시","관악구","001","학교","삼성초등학교","1162010200102330001005470","1162010200","1162073500","서울특별시 관악구 대학7길 52(신림동)","993","381","","","126.941029","37.468039","194783.213709","540958.506075"
"9056","1162000000","385","서울특별시","관악구","001","학교","삼성중학교","1162010200117030002006159","1162010200","1162073500","서울특별시 관악구 신림로3가길 39-24 (신림동)","979","376","김옥희","02-871-6242","126.942816","37.467871","194941.336443","540939.786150"
"9057","1162000000","396","서울특별시","관악구","001","학교","삼성고등학교","1162010200108140000007270","1162010200","1162073500","서울특별시 관악구 신림로 41(신림동)","463","178","구달회","02-871-7583","126.943378","37.469243","194991.098352","541091.990718"
"7315","1156000000","431","서울특별시","영등포구","006","교회","영도교회","1156011800101300022026602","1156011800","1156058500","서울특별시 영등포구 도신로29사길 6(도림동)","521","200","김승수","02-843-9071","126.905328","37.510033","191629.721478","545621.865704"
"7316","1156000000","473","서울특별시","영등포구","014","공공시설(국?공립도서관, 공립병원, 시?도민회관, 구민회관 주민체육시설, 노인병원, 어린이도서관 등)","다목적배드민턴체육관","1156011800102540000025926","1156011800","1156058500","서울특별시 영등포구 도신로15길 5(도림동)","1650","635","김효은","02-2630-2986","126.897329","37.506738","190922.061089","545256.946564"
"7318","1156000000","432","서울특별시","영등포구","006","교회","도림교회","1156011800102050024026134","1156011800","1156058500","서울특별시 영등포구 도영로 37(도림동)","275","106","문재경","02-2181-6000","126.897146","37.510132","190906.286190","545633.623864"
"7319","1156000000","438","서울특별시","영등포구","006","교회","도림동성당","1156011800101440010025425","1156011800","1156058500","서울특별시 영등포구 도영로22길 22(도림동)","150","58","배성희","02-833-9439","126.901449","37.510530","191286.770532","545677.351917"
"7321","1156000000","467","서울특별시","영등포구","004","관공서","도림동주민센터","1156011800102220007026007","1156011800","1156058500","서울특별시 영등포구 도영로7길 10(도림동)","121","47","김지현","02-2670-1157","126.895888","37.509511","190795.042311","545564.839675"
"9126","1165000000","11","서울특별시","서초구","001","학교","방배중학교","1165010700105860001017058","1165010700","1165058100","서울특별시 서초구 동광로 144(반포동)","99","38","김종원","","126.998482","37.494253","199865.771386","543866.318852"
"9127","1165000000","412","서울특별시","서초구","001","학교","신반포중학교","1165010700100030001017692","1165010700","1165057000","서울특별시 서초구 신반포로19길 26(반포동)","863","331","문경기","","126.995764","37.505971","199625.462298","545166.809059"
"9128","1165000000","348","서울특별시","서초구","001","학교","잠원초등학교","1165010700100170000000002","1165010700","1165057000","서울특별시 서초구 신반포로16길 15-25 (반포동)","685","263","최규현","","126.997902","37.501954","199814.458189","544721.015196"
"9129","1165000000","439","서울특별시","서초구","001","학교","반포고등학교","1165010700100300019027548","1165010700","1165056000","서울특별시 서초구 고무래로 71(반포동)","561","215","김혜서","","127.016318","37.502186","201442.849852","544746.870563"
"9130","1165000000","445","서울특별시","서초구","001","학교","원촌중학교","1165010700100220000027531","1165010700","1165056000","서울특별시 서초구 사평대로45길 10(반포동)","588","226","김명진","","127.013981","37.506327","201236.198349","545206.398338"
"9131","1168000000","532","서울특별시","강남구","001","학교","대도초등학교","1168011800101060001000058","1168011800","1168065600","서울특별시 강남구 선릉로 209(도곡동)","1861","715","김은주, 이승진","02-3423-7557","127.052832","37.492723","204672.116502","543697.771151"
"9132","1168000000","531","서울특별시","강남구","001","학교","대치중학교","1168011800104600000026372","1168011800","1168065600","서울특별시 강남구 남부순환로378길 39(도곡동)","1006","386","김은주, 채민정","02-3423-7557","127.047462","37.484604","204197.729548","542796.431633"
"9133","1168000000","542","서울특별시","강남구","004","관공서","도곡1문화센터","1168011800108920006000001","1168011800","1168065500","서울특별시 강남구 도곡로18길 57(도곡동)","183","70","","","127.038872","37.488371","203437.798984","543214.115036"
"9134","1171000000","350","서울특별시","송파구","001","학교","서울잠전초등학교","1171010100102290000000859","1171010100","1171065000","서울특별시 송파구 올림픽로12길 51(잠실동)","7606","2925","잠실본동","02-2147-4600","127.084205","37.506774","207445.220859","545259.248799"
"9135","1165000000","405","서울특별시","서초구","001","학교","신중초등학교","1165010800114660005000003","1165010800","1165053000","서울특별시 서초구 남부순환로317길 15(서초동)","784","301","윤성환","","127.009344","37.480193","200826.469087","542305.846686"
"9136","1165000000","342","서울특별시","서초구","001","학교","서이초등학교","1165010800113340002023194","1165010800","1165052000","서울특별시 서초구 서운로 35(서초동)","581","223","유근수","","127.025993","37.491606","202298.657409","543572.805058"
"9137","1165000000","436","서울특별시","서초구","001","학교","서초초등학교","1165010800113100006020003","1165010800","1165053100","서울특별시 서초구 서운로 178(서초동)","528","203","김경미","","127.023930","37.499522","202116.021995","544451.373827"
"9138","1165000000","444","서울특별시","서초구","001","학교","서초고등학교","1165010800115040000022278","1165010800","1165053000","서울특별시 서초구 반포대로27길 29(서초동)","610","234","심인섭","580-3891","127.006036","37.489240","200533.826709","543309.933230"
"9139","1165000000","406","서울특별시","서초구","001","학교","서초중학교","1165010800117410007021283","1165010800","1165053000","서울특별시 서초구 반포대로13길 48(서초동)","405","155","임진주","","127.008831","37.485646","200781.009788","542911.060633"
"9140","1165000000","407","서울특별시","서초구","001","학교","서울고등학교","1165010800115260001022302","1165010800","1165053000","서울특별시 서초구 효령로 197(서초동)","2520","969","","","127.005570","37.483720","200492.619834","542697.231485"
"9141","1165000000","463","서울특별시","서초구","001","학교","서운중학교","1165010800113250001022542","1165010800","1165052000","서울특별시 서초구 서운로 115(서초동)","1138","437","김미숙","","127.024521","37.493983","202168.418935","543836.593773"
"9142","1165000000","452","서울특별시","서초구","001","학교","서일중학교","1165010800113130016019996","1165010800","1165053100","서울특별시 서초구 서운로21길 2(서초동)","4301","1654","강보경","","127.022184","37.499287","201961.622198","544425.187458"
"9143","1165000000","478","서울특별시","서초구","003","경로당","구립 예술의마을 경로당","1165010800114550004021399","1165010800","1165053000","서울특별시 서초구 남부순환로323길 44-15 (서초동)","79","15","","010-8989-6986","127.000000","37.000000","200000.000000","489012.959917"
"9144","1165000000","385","서울특별시","서초구","004","관공서","서초2동주민센터","1165010800113320006023232","1165010800","1165052000","서울특별시 서초구 서초대로70길 51(서초동)","772","296","이민주","","127.024926","37.492068","202204.304531","543624.105429"
"9145","1165000000","471","서울특별시","서초구","004","관공서","서초4동주민센터","1165010800113020006020157","1165010800","1165053100","서울특별시 서초구 서운로26길 3(서초동)","871","335","","","127.020000","37.500000","201768.508891","544504.315675"
"9146","1165000000","477","서울특별시","서초구","004","관공서","서초3동주민센터","1165010800114590013021368","1165010800","1165053000","서울특별시 서초구 반포대로 34(서초동)","162","62","","","127.000000","37.000000","200000.000000","489012.959917"
"9147","1165000000","446","서울특별시","서초구","001","학교","언남초등학교","1165010900201220000000002","1165010900","1165066000","서울특별시 서초구 헌릉로8길 42(내곡동)","330","126","이정우","","127.061895","37.453963","205476.480731","539396.424172"
"9148","1165000000","454","서울특별시","서초구","001","학교","다니엘학교","1165010900100011328001765","1165010900","1165066000","서울특별시 서초구 헌릉로468길 21-16 (내곡동)","434","166","김현수","","127.092006","37.460705","208139.952327","540146.885104"
"9149","1165000000","469","서울특별시","서초구","001","학교","내곡중학교","1165011100103230001000001","1165011100","1165066000","서울특별시 서초구 청계산로7길 9-20 (신원동)","765","294","함형욱","","127.054329","37.452038","204807.120380","539182.376193"
"9150","1165000000","447","서울특별시","서초구","004","관공서","내곡동주민센터","1165011100103400003000001","1165011100","1165066000","서울특별시 서초구 청계산로15길 77(신원동)","628","241","","","127.051196","37.461970","204529.314385","540284.552934"
"9151","1165000000","470","서울특별시","서초구","013","연수,숙박","오라카이 청계산 호텔","1165011100102710021000002","1165011100","1165066000","서울특별시 서초구 청계산로9길 1-7 (신원동)","20177","386","소원일(총지배인)","02-6200-7300","127.046963","37.462209","204154.816211","540310.865799"
"9152","1168000000","15","서울특별시","강남구","001","학교","도성초등학교","1168010100107140000023399","1168010100","1168065000","서울특별시 강남구 역삼로 313(역삼동)","2225","855","전승환, 최창식","02-3423-7357","127.049183","37.500908","204349.015893","544606.025936"
"9153","1168000000","530","서울특별시","강남구","001","학교","역삼중학교","1168010100107670020024787","1168010100","1168065000","서울특별시 강남구 도곡로43길 10(역삼동)","2424","932","전승환, 최영한","02-3423-7357","127.048597","37.495950","204297.445301","544055.723146"
"9154","1168000000","529","서울특별시","강남구","004","관공서","역삼1문화센터","1168010100108290020000001","1168010100","1168064000","서울특별시 강남구 역삼로7길 16(역삼동)","1473","566","최환영","02-3423-8607","127.033266","37.495395","202941.776889","543993.512547"
"9155","1168000000","21","서울특별시","강남구","001","학교","포이초등학교","1168010300102730000020783","1168010300","1168069000","서울특별시 강남구 개포로22길 87(개포동)","12490","4803","박준석, 신창규","02-3423-7855","127.052878","37.476029","204677.255097","541844.999409"
"9156","1171000000","372","서울특별시","송파구","001","학교","문현중학교","1171010900102040007000001","1171010900","1171064600","서울특별시 송파구 충민로 99(장지동)","3598","1383","장지동장","02-2147-4570","127.127675","37.480571","211292.648137","542355.474621"
"9157","1171000000","486","서울특별시","송파구","001","학교","서울송례초등학교","1171010900103930000000001","1171010900","1171064700","서울특별시 송파구 위례순환로 439(장지동)","6543","2516","위례동장","","127.138444","37.477873","212245.586755","542057.335132"
"9158","1168000000","524","서울특별시","강남구","001","학교","청담중학교","1168010400101430000017129","1168010400","1168056500","서울특별시 강남구 압구정로61길 36(청담동)","1944","747","정대식,홍성희","02-3423-7734","127.045542","37.528518","204025.563500","547670.263858"
"9159","1168000000","526","서울특별시","강남구","001","학교","경기고등학교","1168010500100740004014890","1168010500","1168058000","서울특별시 강남구 영동대로 643(삼성동)","614","236","김경식,이홍순","02-3423-7809","127.056003","37.517426","204950.970281","546439.608815"
"9160","1168000000","525","서울특별시","강남구","001","학교","봉은초등학교","1168010500100790002014624","1168010500","1168058000","서울특별시 강남구 학동로 610(삼성동)","2361","908","김경식,민종선","02-3423-7809","127.060791","37.520101","205374.032820","546736.770615"
"9092","1162000000","418","서울특별시","관악구","013","연수,숙박","실크로드모텔","1162010200116390061021313","1162010200","1162064500","서울특별시 관악구 관천로 32(신림동)","300","115","","","126.927872","37.482979","193620.620293","542617.508015"
"9093","1162000000","401","서울특별시","관악구","014","공공시설(국?공립도서관, 공립병원, 시?도민회관, 구민회관 주민체육시설, 노인병원, 어린이도서관 등)","선우체육관","1162010200201170008000001","1162010200","1162076500","서울특별시 관악구 문성로16다길 133-70 (신림동)","766","232","이현로","02-2081-2640","126.912691","37.467434","192276.323751","540893.324786"
"9094","1162000000","420","서울특별시","관악구","013","연수,숙박","명작모텔","1162010300106020004023869","1162010300","1162063000","서울특별시 관악구 승방2길 25(남현동)","558","214","","","126.980917","37.474967","198311.994611","541725.911827"
"9095","1162000000","425","서울특별시","관악구","013","연수,숙박","넘버25호텔","1162010300106020016023103","1162010300","1162063000","서울특별시 관악구 승방2길 13(남현동)","48","15","김명석","02-584-5322","126.981046","37.474424","198323.455983","541665.684872"
"9096","1165000000","12","서울특별시","서초구","001","학교","서래초등학교","1165010100107710000015657","1165010100","1165059000","서울특별시 서초구 방배로 260(방배동)","2441","938","서은택","010-2399-7465","126.989296","37.496302","199053.458863","544093.737231"
"9097","1165000000","13","서울특별시","서초구","001","학교","방일초등학교","1165010100101670004015466","1165010100","1165060000","서울특별시 서초구 방배로18길 52(방배동)","1962","754","최호영","010-5080-3750","126.998405","37.485397","199858.964909","542883.359530"
"9098","1165000000","414","서울특별시","서초구","001","학교","동덕여자중고등학교","1165010100200820000000003","1165010100","1165062000","서울특별시 서초구 효령로2길 123-5 (방배동)","13162","5062","박상화","","126.992511","37.475868","199337.533415","541825.873700"
"9099","1165000000","14","서울특별시","서초구","001","학교","이수초등학교","1165010100104680006013378","1165010100","1165061000","서울특별시 서초구 방배천로4길 23(방배동)","165","63","김경미","","126.984613","37.478462","198638.987524","542113.806761"
"9100","1165000000","349","서울특별시","서초구","001","학교","방배초등학교","1165010100108610001024669","1165010100","1165062100","서울특별시 서초구 방배중앙로13길 26(방배동)","726","279","장효준","010-3357-7943","126.987179","37.487461","198866.105175","543112.521140"
"9101","1165000000","408","서울특별시","서초구","001","학교","상문고등학교","1165010100110020023022173","1165010100","1165053000","서울특별시 서초구 명달로 45(방배동)","2100","807","박준희","010-2003-8260","127.004834","37.479464","200427.565632","542224.911821"
"9102","1165000000","399","서울특별시","서초구","001","학교","서울전자고등학교","1165010100127270000013713","1165010100","1165061000","서울특별시 서초구 과천대로 852-23 (방배동)","270","103","조혜림","","126.988253","37.469815","198960.874862","541154.109610"
"9103","1165000000","453","서울특별시","서초구","001","학교","서문여자중학교","1165010100115140000009314","1165010100","1165062100","서울특별시 서초구 동광로12길 84(방배동)","5700","2192","이지영","010-2360-9634","126.984569","37.488816","198635.344165","543262.962878"
"9104","1165000000","467","서울특별시","서초구","001","학교","서문여자고등학교","1165010100115140000010278","1165010100","1165062100","서울특별시 서초구 동광로12길 84(방배동)","1023","393","","02-2155-8371","126.985498","37.489342","198717.510885","543321.376616"
"9105","1165000000","424","서울특별시","서초구","003","경로당","기령당경로당","1165010100107780016015985","1165010100","1165059000","서울특별시 서초구 방배중앙로 159-6 (방배동)","66","25","","","126.985960","37.493325","198758.425434","543763.344575"
"9106","1165000000","396","서울특별시","서초구","003","경로당","구립 방배3동 제1경로당","1165010100105370050010887","1165010100","1165062000","서울특별시 서초구 효령로14다길 21(방배동)","60","20","강봉순","","126.991616","37.478227","199258.416137","542087.621190"
"9107","1168000000","25","서울특별시","강남구","001","학교","대진초등학교","1168010300100130000019039","1168010300","1168074000","서울특별시 강남구 개포로109길 74(개포동)","330","126","양승엽, 오창원","02-3423-8457","127.078042","37.496686","206901.246473","544139.193392"
"9108","1168000000","536","서울특별시","강남구","001","학교","구룡초등학교","1168010300106550000019635","1168010300","1168069000","서울특별시 강남구 개포로 263(개포동)","1810","696","박준석, 임홍섭","02-3423-7855","127.052053","37.481323","204603.950670","542432.537598"
"9109","1168000000","533","서울특별시","강남구","001","학교","구룡중학교","1168010300106500000019186","1168010300","1168066000","서울특별시 강남구 선릉로 103(개포동)","1129","434","정길용, 윤종순","02-3423-7653","127.055745","37.486102","204930.202418","542963.093557"
"9110","1168000000","534","서울특별시","강남구","001","학교","양전초등학교","1168010300101830000019091","1168010300","1168067000","서울특별시 강남구 개포로 513(개포동)","1897","729","김영숙, 서명종","02-3423-7755","127.069121","37.490257","206112.863718","543425.022799"
"9111","1168000000","535","서울특별시","강남구","001","학교","개원중학교","1168010300101840000019087","1168010300","1168067000","서울특별시 강남구 영동대로 101(개포동)","2034","782","김영숙, 임홍욱","02-3423-7755","127.071735","37.491720","206343.900926","543587.544029"
"9112","1168000000","7","서울특별시","강남구","001","학교","언북초등학교","1168010400100270000018752","1168010400","1168056500","서울특별시 강남구 삼성로135길 42(청담동)","15560","5984","정대식, 김종길","02-3423-7734","127.045637","37.519989","204034.413798","546723.641084"
"9113","1165000000","468","서울특별시","서초구","014","공공시설(국?공립도서관, 공립병원, 시?도민회관, 구민회관 주민체육시설, 노인병원, 어린이도서관 등)","언남문화체육센터","1165010200103090000003104","1165010200","1165065200","서울특별시 서초구 동산로13길 35(양재동)","330","126","","","127.043372","37.472319","203836.588720","541432.798463"
"9114","1165000000","415","서울특별시","서초구","001","학교","우면초등학교","1165010300102860000000001","1165010300","1165065100","서울특별시 서초구 태봉로 59(우면동)","764","293","임홍섭","","127.023601","37.464659","202087.917404","540582.002686"
"9115","1165000000","340","서울특별시","서초구","001","학교","우암초등학교","1165010300100580000005970","1165010300","1165065100","서울특별시 서초구 바우뫼로7길 38(우면동)","456","175","오창원","","127.024283","37.472081","202148.015712","541405.750523"
"9116","1165000000","427","서울특별시","서초구","003","경로당","암산마을경로당","1165010300100550000005917","1165010300","1165065100","서울특별시 서초구 바우뫼로7길 84(우면동)","99","38","","","127.024429","37.473519","202160.943186","541565.375810"
"9117","1165000000","428","서울특별시","서초구","003","경로당","소동마을경로당","1165010300104760006007133","1165010300","1165065100","서울특별시 서초구 송동길 27(우면동)","99","38","","","127.017107","37.460173","201513.488290","540084.021610"
"9118","1165000000","474","서울특별시","서초구","004","관공서","양재1동주민센터","1165010300100680002007616","1165010300","1165065100","서울특별시 서초구 바우뫼로 41(우면동)","321","123","","","127.030000","37.470000","202653.824293","541174.947803"
"9119","1165000000","5","서울특별시","서초구","001","학교","신동초등학교","1165010600100540005018857","1165010600","1165054000","서울특별시 서초구 나루터로 15(잠원동)","577","222","박찬경","010-2733-8597","127.011894","37.516895","201051.465159","546379.376185"
"9120","1165000000","351","서울특별시","서초구","001","학교","경원중학교","1165010600100660001017504","1165010600","1165058000","서울특별시 서초구 신반포로33길 39(잠원동)","723","278","배명호","","127.008875","37.510755","200784.646446","545697.845875"
"9121","1165000000","377","서울특별시","서초구","001","학교","반원초등학교","1165010600100720000017515","1165010600","1165058000","서울특별시 서초구 잠원로3길 28(잠원동)","374","143","","","127.003876","37.510121","200342.676611","545627.401189"
"9122","1165000000","409","서울특별시","서초구","001","학교","신동중학교","1165010600100540006019086","1165010600","1165054000","서울특별시 서초구 나루터로 27(잠원동)","730","280","정노아","","127.013202","37.516602","201167.104143","546346.844566"
"9123","1165000000","419","서울특별시","서초구","004","관공서","반포3동주민센터","1165010600100710007017444","1165010600","1165058000","서울특별시 서초구 신반포로23길 78(잠원동)","748","287","","","127.005580","37.512069","200493.304494","545843.626342"
"9124","1165000000","386","서울특별시","서초구","004","관공서","잠원동주민센터","1165010600100580027019687","1165010600","1165054000","서울특별시 서초구 나루터로 38(잠원동)","1468","564","이수현","","127.014062","37.514933","201243.176790","546161.573327"
"9125","1165000000","6","서울특별시","서초구","001","학교","반포초등학교","1165010700109370000018837","1165010700","1165055000","서울특별시 서초구 신반포로 55-4 (반포동)","252","96","서명종","010-3103-1051","126.990985","37.503137","199202.918641","544852.301299"
"9058","1162000000","371","서울특별시","관악구","001","학교","난향초등학교","1162010200106720000009490","1162010200","1162071500","서울특별시 관악구 난향길 9(신림동)","168","64","고재홍","","126.917891","37.462102","192735.812882","540301.134905"
"9059","1165000000","401","서울특별시","서초구","003","경로당","방배1동제1경로당","1165010100101440018014342","1165010100","1165060000","서울특별시 서초구 서초대로 114-8 (방배동)","131","50","이경재","010-5377-1765","126.994700","37.487547","199531.290320","543121.996439"
"9060","1165000000","402","서울특별시","서초구","003","경로당","구립방배4동경로당","1165010100108210001010036","1165010100","1165062100","서울특별시 서초구 방배중앙로19길 4(방배동)","146","56","황장봉","010-5695-1942","126.986901","37.489871","198841.556016","543380.059374"
"9061","1165000000","389","서울특별시","서초구","004","관공서","방배1동주민센터","1165010100109220018015457","1165010100","1165060000","서울특별시 서초구 효령로29길 43(방배동)","598","230","","","126.994493","37.483351","199512.966591","542656.325888"
"9062","1165000000","390","서울특별시","서초구","004","관공서","방배2동주민센터","1165010100104620013013079","1165010100","1165061000","서울특별시 서초구 청두곶길 36(방배동)","898","345","이소라","","126.985584","37.479793","198724.935699","542261.484201"
"9063","1165000000","393","서울특별시","서초구","004","관공서","방배3동주민센터","1165010100109830014011482","1165010100","1165062000","서울특별시 서초구 방배로10길 10-20 (방배동)","677","260","","","126.999464","37.480299","199952.587090","542317.589268"
"9064","1165000000","472","서울특별시","서초구","004","관공서","방배본동주민센터","1165010100107740009016396","1165010100","1165059000","서울특별시 서초구 동광로19길 38(방배동)","324","127","","","126.990000","37.490000","199115.627649","543394.305317"
"9065","1165000000","378","서울특별시","서초구","001","학교","양재초등학교","1165010200101010000005504","1165010200","1165065100","서울특별시 서초구 바우뫼로18길 14(양재동)","558","214","진현주","","127.031911","37.474192","202822.749739","541640.312124"
"9066","1165000000","450","서울특별시","서초구","001","학교","언남중학교","1165010200103100000003164","1165010200","1165065200","서울특별시 서초구 동산로 55(양재동)","1700","653","김종서","","127.044113","37.472535","203902.133807","541456.735410"
"9067","1165000000","457","서울특별시","서초구","001","학교","매헌초등학교","1165010200103110001000002","1165010200","1165065200","서울특별시 서초구 언남길 8(양재동)","665","255","임희정","","127.042031","37.471242","203718.056040","541313.224429"
"9068","1165000000","429","서울특별시","서초구","003","경로당","잔디마을경로당","1165010200102050004003843","1165010200","1165065200","서울특별시 서초구 매헌로6길 58(양재동)","65","25","","","127.035480","37.466247","203138.778283","540758.627497"
"9069","1165000000","460","서울특별시","서초구","003","경로당","구립우면경로당","1165010200100060001007669","1165010200","1165065100","서울특별시 서초구 바우뫼로41길 38-3 (양재동)","66","25","이정윤","01042403355","127.040817","37.482304","203610.069655","542540.926549"
"9070","1165000000","475","서울특별시","서초구","004","관공서","양재2동주민센터","1165010200103230001003272","1165010200","1165065200","서울특별시 서초구 강남대로12길 44(양재동)","350","134","","","127.040000","37.470000","203538.432423","541175.276538"
"9071","1162000000","378","서울특별시","관악구","001","학교","구암초등학교","1162010100104820001033937","1162010100","1162056500","서울특별시 관악구 구암길 1(봉천동)","513","197","","","126.947164","37.489640","195327.347461","543355.633189"
"9072","1162000000","380","서울특별시","관악구","001","학교","당곡중학교","1162010100106820000038984","1162010100","1162052500","서울특별시 관악구 봉천로13길 101(봉천동)","856","329","","","126.933161","37.491905","194089.102278","543607.812298"
"9073","1162000000","382","서울특별시","관악구","001","학교","봉림중학교","1162010100115310038029858","1162010100","1162059500","서울특별시 관악구 장군봉길 72(봉천동)","555","213","김미희","","126.938190","37.480736","194533.001548","542367.899112"
"9074","1162000000","381","서울특별시","관악구","001","학교","신봉초등학교","1162010100104580000025646","1162010100","1162061500","서울특별시 관악구 양녕로6나길 1(봉천동)","868","333","","","126.949271","37.485710","195513.414337","542919.346977"
"9075","1162000000","421","서울특별시","관악구","001","학교","인헌초등학교","1162010100102120003031250","1162010100","1162058500","서울특별시 관악구 낙성대로 23(봉천동)","595","100","김동철","010-4734-3977","126.960175","37.476459","196477.366398","541892.122043"
"9076","1162000000","413","서울특별시","관악구","013","연수,숙박","명동여관","1162010100108940012034073","1162010100","1162059500","서울특별시 관악구 남부순환로 1770-6 (봉천동)","404","122","","","126.946606","37.481507","195277.428954","542453.000052"
"9077","1162000000","412","서울특별시","관악구","013","연수,숙박","아비숑여관","1162010100108750006034164","1162010100","1162059500","서울특별시 관악구 관악로17길 46(봉천동)","396","120","","","126.949229","37.481104","195509.389626","542408.178498"
"9078","1162000000","411","서울특별시","관악구","013","연수,숙박","유림장","1162010100108940016034071","1162010100","1162059500","서울특별시 관악구 청룡길 9(봉천동)","330","100","","","126.946429","37.481454","195261.779252","542447.064491"
"9079","1162000000","415","서울특별시","관악구","013","연수,숙박","폭스호텔","1162010100100620033031790","1162010100","1162057500","서울특별시 관악구 관악로 208-4 (봉천동)","1200","60","","","126.954594","37.483120","195984.023983","542631.612103"
"9080","1162000000","414","서울특별시","관악구","013","연수,숙박","대성여인숙","1162010100100140042036032","1162010100","1162054500","서울특별시 관악구 청림길 3-1 (봉천동)","119","36","","","126.958421","37.488521","196322.796487","543230.876454"
"9081","1162000000","398","서울특별시","관악구","014","공공시설(국?공립도서관, 공립병원, 시?도민회관, 구민회관 주민체육시설, 노인병원, 어린이도서관 등)","청룡산체육관","1162010100201750036000002","1162010100","1162059500","서울특별시 관악구 관악로5길 91-41 (봉천동)","684","263","배기수","","126.949371","37.474125","195521.553933","541633.516147"
"9082","1162000000","400","서울특별시","관악구","014","공공시설(국?공립도서관, 공립병원, 시?도민회관, 구민회관 주민체육시설, 노인병원, 어린이도서관 등)","국사봉체육관","1162010100201030059000001","1162010100","1162060500","서울특별시 관악구 국회단지길 144(봉천동)","2001","769","배기수","","126.941703","37.491601","194844.453349","543573.520274"
"9083","1165000000","448","서울특별시","서초구","001","학교","세화여자고등학교","1165010700107530000018801","1165010700","1165055000","서울특별시 서초구 신반포로 56-7 (반포동)","1175","451","박기혁","010-4789-0227","126.993293","37.502218","199406.910949","544750.290455"
"9084","1165000000","464","서울특별시","서초구","001","학교","서원초등학교","1165010700100300008018424","1165010700","1165056000","서울특별시 서초구 고무래로 63(반포동)","601","231","박정일","","127.014554","37.502869","201286.925617","544822.696895"
"9085","1165000000","465","서울특별시","서초구","001","학교","원촌초등학교","1165010700100210000018284","1165010700","1165056000","서울특별시 서초구 사평대로45길 26(반포동)","555","213","최낙진","010-2658-8113","127.012717","37.506101","201124.385692","545181.387060"
"9086","1165000000","438","서울특별시","서초구","003","경로당","반포본동 아파트 복지문화센터","1165010700113020000018802","1165010700","1165055000","서울특별시 서초구 신반포로 9(반포동, 반포아파트)","204","78","","010-5364-1962","126.985776","37.501572","198742.293792","544678.666710"
"9087","1165000000","459","서울특별시","서초구","003","경로당","구립반포본동경로당","1165010700111270000018823","1165010700","1165055000","서울특별시 서초구 신반포로 32(반포동, 반포아파트)","73","27","허춘자","01051809456","126.986095","37.500258","198770.448433","544532.889882"
"9088","1165000000","473","서울특별시","서초구","004","관공서","반포4동주민센터","1165010700100740007000001","1165010700","1165058100","서울특별시 서초구 사평대로28길 70(반포동)","1946","748","강연숙","","127.000000","37.500000","200000.000000","544504.127773"
"9089","1165000000","476","서울특별시","서초구","004","관공서","반포1동주민센터","1165010700100200048000001","1165010700","1165056000","서울특별시 서초구 사평대로 273(반포동)","239","91","","","127.010000","37.510000","200884.136506","545614.046064"
"9090","1165000000","466","서울특별시","서초구","014","공공시설(국?공립도서관, 공립병원, 시?도민회관, 구민회관 주민체육시설, 노인병원, 어린이도서관 등)","심산기념문화센터","1165010700101140003017800","1165010700","1165057000","서울특별시 서초구 사평대로 55(반포동)","917","352","","","126.991570","37.499037","199254.586037","544397.252900"
"9091","1165000000","1","서울특별시","서초구","001","학교","서일초등학교","1165010800114360008024521","1165010800","1165051000","서울특별시 서초구 남부순환로339길 38(서초동)","653","251","주미령","","127.022350","37.485166","201976.702237","542857.977212"
"7121","1150000000","358","서울특별시","강서구","003","경로당","중앙 경로당","1150010300109780018015956","1150010300","1150059100","서울특별시 강서구 화곡로44가길 52-4 (화곡동)","90","34","고정애","010-2421-4195","126.848809","37.549669","186639.762190","550027.500231"
"7122","1150000000","359","서울특별시","강서구","003","경로당","우장산 경로당","1150010300109940005015957","1150010300","1150059100","서울특별시 강서구 화곡로53길 56-10 (화곡동)","91","35","이해관","010-7738-2520","126.846323","37.551944","186420.478821","550280.322188"
"7123","1150000000","361","서울특별시","강서구","003","경로당","까치산 경로당","1150010300103590126014443","1150010300","1150054000","서울특별시 강서구 강서로17나길 99(화곡동)","206","79","성낙규","010-8320-9012","126.841389","37.536755","185981.600897","548595.323210"
"7124","1150000000","362","서울특별시","강서구","003","경로당","공원 경로당","1150010300103790032013293","1150010300","1150054000","서울특별시 강서구 가로공원로77길 30(화곡동)","243","93","금재호","010-2702-4740","126.838505","37.537913","185726.916808","548724.272108"
"7125","1150000000","363","서울특별시","강서구","003","경로당","화곡 경로당","1150010300103410041029001","1150010300","1150059300","서울특별시 강서구 강서로12길 15-10 (화곡동)","223","85","이재열","010-8999-6086","126.847776","37.532095","186545.305623","548077.129400"
"7126","1150000000","364","서울특별시","강서구","003","경로당","약수 경로당","1150010300104090084012522","1150010300","1150059300","서울특별시 강서구 초록마을로32길 32(화곡동)","93","35","이혜순","010-2258-8573","126.847591","37.538100","186529.998789","548743.712042"
"7127","1150000000","366","서울특별시","강서구","003","경로당","안골 경로당","1150010300101550001012521","1150010300","1150059300","서울특별시 강서구 강서로18아길 15-9 (화곡동)","122","46","윤양순","010-4257-6709","126.850904","37.535811","186822.385825","548489.194849"
"7128","1150000000","433","서울특별시","강서구","003","경로당","일심 경로당(화곡8동)","1150010300108780003011709","1150010300","1150059300","서울특별시 강서구 곰달래로30길 14(화곡동)","93","35","이인랑","010-6669-5546","126.851466","37.530192","186871.095252","547865.470462"
"7129","1150000000","331","서울특별시","강서구","001","학교","양천초등학교","1150010400102720011009971","1150010400","1150060300","서울특별시 강서구 양천로 329(가양동)","2182","839","위인호","010-6276-0195","126.839460","37.570024","185817.477680","552288.039632"
"7130","1150000000","431","서울특별시","강서구","001","학교","경서중학교","1150010400114830000009521","1150010400","1150060500","서울특별시 강서구 양천로59길 31(가양동)","1166","448","나영욱","010-2250-7745","126.858052","37.561432","187458.437511","551331.776378"
"7131","1150000000","430","서울특별시","강서구","001","학교","탑산초등학교","1150010400114730000009705","1150010400","1150060400","서울특별시 강서구 허준로 109(가양동)","696","267","진효선","010-7170-1892","126.852101","37.566910","186933.674476","551940.642192"
"7132","1150000000","368","서울특별시","강서구","003","경로당","성재정경로당","1150010400101310001010650","1150010400","1150060300","서울특별시 강서구 강서로74길 11(가양동)","257","98","유일부","010-9025-7600","126.841903","37.567731","186032.857097","552033.194999"
"7133","1150000000","389","서울특별시","강서구","014","공공시설(국?공립도서관, 공립병원, 시?도민회관, 구민회관 주민체육시설, 노인병원, 어린이도서관 등)","가양5종합사회복지관(장수)","1150010400114810000009551","1150010400","1150060400","서울특별시 강서구 양천로57길 36(가양동, 가양5단지아파트)","164","62","조인영","010-4756-3604","126.854613","37.563494","187154.964047","551561.100913"
"7134","1150000000","390","서울특별시","강서구","014","공공시설(국?공립도서관, 공립병원, 시?도민회관, 구민회관 주민체육시설, 노인병원, 어린이도서관 등)","가양4종합사회복지관","1150010400114780000009548","1150010400","1150060400","서울특별시 강서구 양천로57길 37(가양동, 가양4단지아파트)","226","86","정성원","010-9992-6690","126.851845","37.565109","186910.703659","551740.724549"
"7135","1150000000","334","서울특별시","강서구","001","학교","가곡초등학교","1150010600101530007008466","1150010500","1150061100","서울특별시 강서구 공항대로36길 74(마곡동)","1650","634","김지연","010-4632-3759","126.835822","37.555284","185493.192202","550652.632477"
"7136","1150000000","406","서울특별시","강서구","003","경로당","후포경로당","1150010500100050037010659","1150010500","1150060300","서울특별시 강서구 양천로47길 104(마곡동)","285","109","석정배","010-3339-6147","126.837078","37.574933","185607.941821","552833.202355"
"7137","1150000000","407","서울특별시","강서구","003","경로당","마곡경로당","1150010500103260032029188","1150010500","1150060300","서울특별시 강서구 양천로30길 20(마곡동)","190","73","홍은선","010-3063-3695","126.822563","37.572293","184325.205583","552542.597004"
"7138","1150000000","393","서울특별시","강서구","014","공공시설(국?공립도서관, 공립병원, 시?도민회관, 구민회관 주민체육시설, 노인병원, 어린이도서관 등)","방화6종합사회복지관","1150010900108160000000206","1150010900","1150064100","서울특별시 강서구 금낭화로23길 25(방화동, 방화6단지아파트)","81","31","심혜수","010-9771-9636","126.810839","37.578400","183290.836533","553222.429351"
"7139","1150000000","394","서울특별시","강서구","014","공공시설(국?공립도서관, 공립병원, 시?도민회관, 구민회관 주민체육시설, 노인병원, 어린이도서관 등)","방화2종합사회복지관 (우정)","1150010900108390000000213","1150010900","1150064100","서울특별시 강서구 방화대로48길 40(방화동, 방화2단지아파트)","88","33","김민교","010-7100-3452","126.818740","37.574777","183987.979851","552818.849598"
"7140","1150000000","336","서울특별시","강서구","003","경로당","내촌 경로당","1150011000105510034000001","1150011000","1150064000","서울특별시 강서구 개화동로13길 12-8 (개화동)","264","101","양승춘","010-8788-5522","126.801527","37.577552","182468.094488","553129.968982"
"7141","1153000000","355","서울특별시","구로구","001","학교","신도림중학교","1153010100103110001026584","1153010100","1153051000","서울특별시 구로구 경인로63길 74(신도림동)","828","318","이진미","","126.885414","37.510927","189869.160564","545723.100474"
"7142","1153000000","354","서울특별시","구로구","001","학교","신도림고등학교","1153010100102700002000001","1153010100","1153051000","서울특별시 구로구 경인로67길 159(신도림동)","560","215","황정희","","126.882048","37.514242","189572.021366","546091.343498"
"7143","1150000000","345","서울특별시","강서구","003","경로당","봉제 경로당","1150010300200470016018096","1150010300","1150059000","서울특별시 강서구 까치산로18길 62(화곡동)","90","34","송영원","010-6708-7225","126.851366","37.545098","186864.869239","549519.782649"
"7144","1150000000","346","서울특별시","강서구","003","경로당","화촌 경로당","1150010300101050382018095","1150010300","1150059000","서울특별시 강서구 까치산로4길 30-21 (화곡동)","194","74","문두순","010-8684-8668","126.844483","37.540731","186255.785099","549036.130965"
"7145","1150000000","347","서울특별시","강서구","003","경로당","초록동 경로당","1150010300100550079017862","1150010300","1150059000","서울특별시 강서구 초록마을로14길 36(화곡동)","216","83","정남두","010-9744-5184","126.848513","37.541119","186612.012194","549078.636168"
"7146","1150000000","348","서울특별시","강서구","003","경로당","곰달래 경로당","1150010300109220010024833","1150010300","1150054000","서울특별시 강서구 월정로20길 38(화곡동)","91","35","심재덕","010-5346-8779","126.840691","37.529525","185918.595007","547792.953629"
"7147","1150000000","350","서울특별시","강서구","003","경로당","골안말 경로당","1150010300108650001023348","1150010300","1150055000","서울특별시 강서구 곰달래로45길 17(화곡동)","137","52","이우순","010-3833-3695","126.856095","37.533240","187280.767909","548203.092775"
"7148","1150000000","352","서울특별시","강서구","003","경로당","푸른 경로당","1150010300110160034021850","1150010300","1150056000","서울특별시 강서구 강서로45다길 74(화곡동)","90","34","구옥희","010-7611-9259","126.834798","37.544564","185400.640753","549462.965266"
"7149","1150000000","354","서울특별시","강서구","003","경로당","화친 경로당","1150010300107920009020807","1150010300","1150057000","서울특별시 강서구 강서로8길 203(화곡동)","96","36","김종환","010-5213-8825","126.859359","37.531213","187568.967729","547977.710790"
"7150","1150000000","355","서울특별시","강서구","003","경로당","무지개 경로당","1150010300108100006020754","1150010300","1150057000","서울특별시 강서구 곰달래로57가길 19(화곡동)","196","75","이형패","010-9270-4670","126.860828","37.534037","187699.197539","548290.886082"
"7151","1150000000","360","서울특별시","강서구","003","경로당","연지 경로당","1150010300111210000015008","1150010300","1150059100","서울특별시 강서구 까치산로 171(화곡동, )","127","48","이정순","010-9818-8221","126.853018","37.552566","187012.170428","550348.506231"
"7152","1150000000","356","서울특별시","강서구","003","경로당","신곡 경로당","1150010300104660009020675","1150010300","1150057000","서울특별시 강서구 곰달래로49길 130(화곡동)","517","198","신신웅","010-7377-6692","126.854537","37.536691","187143.667685","548586.286837"
"7153","1150000000","357","서울특별시","강서구","003","경로당","봉바위 경로당","1150010300110610036019166","1150010300","1150061500","서울특별시 강서구 강서로34길 34(화곡동)","90","34","최송자","010-8324-5910","126.841577","37.543132","185999.435548","549302.985082"
"7154","1150000000","375","서울특별시","강서구","003","경로당","장미 경로당","1150010800106680000007395","1150010800","1150062000","서울특별시 강서구 방화대로7다길 35-18 (공항동)","110","42","한오석","010-4742-5581","126.813781","37.556658","183545.980784","550808.765665"
"7155","1150000000","337","서울특별시","강서구","001","학교","개화초등학교","1150010900105010003000004","1150010900","1150063000","서울특별시 강서구 양천로 11(방화동)","1325","509","최진미","010-3477-6260","126.804700","37.573987","182747.526697","552733.653936"
"7156","1150000000","338","서울특별시","강서구","001","학교","방화중학교","1150010900106360001002916","1150010900","1150064000","서울특별시 강서구 개화동로27길 9(방화동)","632","243","신중돈","010-9096-6718","126.806698","37.565258","182922.062863","551764.523440"
"7157","1150000000","339","서울특별시","강서구","001","학교","치현초등학교","1150010900108330000000431","1150010900","1150064100","서울특별시 강서구 방화대로47길 43(방화동)","2310","888","한옥기","010-3460-2927","126.814572","37.575617","183619.950988","552912.802971"
"7158","1150000000","421","서울특별시","강서구","001","학교","방원중학교","1150010900108080000000411","1150010900","1150064100","서울특별시 강서구 금낭화로 268(방화동)","1103","424","김진호","010-3298-3303","126.808814","37.575758","183111.368035","552929.532772"
"7159","1150000000","419","서울특별시","강서구","001","학교","삼정초등학교","1150010900107980000000161","1150010900","1150064100","서울특별시 강서구 금낭화로 222(방화동)","540","207","윤영주","010-5658-8522","126.810278","37.580104","183241.703358","553411.647257"
"7160","1150000000","420","서울특별시","강서구","001","학교","삼정중학교","1150010900108560000000168","1150010900","1150064100","서울특별시 강서구 금낭화로 210(방화동)","260","100","김윤재","010-2372-6013","126.810746","37.581225","183283.301751","553535.983318"
"7161","1150000000","428","서울특별시","강서구","001","학교","송화초등학교","1150010900102380001005001","1150010900","1150063000","서울특별시 강서구 방화대로34길 2(마곡동)","1726","663","송인수","010-3259-0828","126.817541","37.568500","183880.724876","552122.432831"
"7162","1150000000","381","서울특별시","강서구","003","경로당","복종 경로당","1150010900104940003003393","1150010900","1150063000","서울특별시 강서구 양천로7길 11(방화동)","96","36","류지홍","010-6255-8714","126.807727","37.573350","183014.850111","552662.485813"
"7163","1150000000","382","서울특별시","강서구","003","경로당","방화 경로당","1150010900106480023002084","1150010900","1150064000","서울특별시 강서구 개화동로23길 26(방화동)","180","69","김기수","010-7155-7560","126.807038","37.566635","182952.454088","551917.310473"
"7164","1150000000","383","서울특별시","강서구","003","경로당","치현 경로당","1150010900108230001029219","1150010900","1150064100","서울특별시 강서구 금낭화로24가길 40(방화동)","318","122","장복순","010-2508-7790","126.815348","37.579819","183689.482813","553379.036598"
"7165","1150000000","384","서울특별시","강서구","003","경로당","능말 경로당","1150010900108110015000693","1150010900","1150064100","서울특별시 강서구 금낭화로19길 7-3 (방화동)","151","57","양성임","010-3233-0268","126.811442","37.575450","183343.483882","552894.844661"
"7166","1150000000","378","서울특별시","강서구","003","경로당","방화구립 경로당","1150010900102620007029173","1150010900","1150063000","서울특별시 강서구 방화대로37길 47-5 (방화동)","116","44","이상연","010-4751-3918","126.813894","37.569761","183558.821268","552263.044435"
"7167","1150000000","409","서울특별시","강서구","003","경로당","일심경로당","1150010900102170159004696","1150010900","1150063000","서울특별시 강서구 방화대로 297-9 (방화동)","119","45","최순오","010-5389-7088","126.815997","37.566865","183743.990910","551941.221517"
"7168","1150000000","434","서울특별시","강서구","003","경로당","동부경로당(방화1동)","1150010900101680087004753","1150010900","1150063000","서울특별시 강서구 양천로28길 12-9 (방화동)","98","37","황영길","010-8989-8651","126.819849","37.572534","184085.490855","552569.794809"
"7169","1150000000","392","서울특별시","강서구","014","공공시설(국?공립도서관, 공립병원, 시?도민회관, 구민회관 주민체육시설, 노인병원, 어린이도서관 등)","방화11종합사회복지관","1150010900108510000001415","1150010900","1150064000","서울특별시 강서구 개화동로21길 4(방화동, 방화11단지아파트)","123","47","신택원","010-9853-0320","126.805531","37.570145","182820.082579","552307.159039"
"7170","1153000000","347","서울특별시","구로구","001","학교","개봉초등학교","1153010700102660000008299","1153010700","1153076000","서울특별시 구로구 개봉로16길 30-11 (개봉동)","534","205","김지영","02-2613-0936","126.858344","37.489462","187472.241848","543343.972812"
"7171","1153000000","341","서울특별시","구로구","001","학교","경인중학교","1153010700101430004006910","1153010700","1153074000","서울특별시 구로구 경인로 301(개봉동)","858","330","윤현석","010-3240-3151","126.854658","37.498382","187147.788193","544334.473888"
"7172","1153000000","379","서울특별시","구로구","004","관공서","개봉2동주민센터","1153010700102610006009266","1153010700","1153075000","서울특별시 구로구 개봉로16가길 17(개봉동)","187","72","","","126.856456","37.490839","187305.464209","543497.025955"
"7173","1153000000","378","서울특별시","구로구","007","기타시설","글로벌모텔","1153010700104030028008769","1153010700","1153075000","서울특별시 구로구 개봉로19길 23(개봉동)","104","12","","","126.855792","37.493141","187247.194112","543752.666457"
"7174","1150000000","418","서울특별시","강서구","001","학교","발산초등학교","1150010600104080000008781","1150010600","1150061100","서울특별시 강서구 강서로45길 113(내발산동)","4292","1650","권지영","010-2736-9616","126.830947","37.549937","185061.344594","550059.926841"
"7175","1150000000","370","서울특별시","강서구","003","경로당","발음 경로당","1150010600106970000009147","1150010600","1150061100","서울특별시 강서구 강서로47길 61-21 (내발산동)","90","34","이광재","010-7662-3221","126.833172","37.552187","185258.390244","550309.305565"
"7918","1111000000","17","서울특별시","종로구","001","학교","재동초등학교","1111014600102100000018095","1111014600","1111060000","서울특별시 종로구 북촌로4길 7(가회동)","202","77","박소양","02-763-1813","126.985568","37.579830","198725.201173","553364.383094"
"7919","1111000000","348","서울특별시","종로구","004","관공서","가회동주민센터","1111014600101580001018151","1111014600","1111060000","서울특별시 종로구 북촌로 35(가회동)","121","46","","","126.984799","37.580105","198657.265272","553394.930087"
"7920","1111000000","378","서울특별시","종로구","004","관공서","종로구웰니스센터","1111014900101810005000001","1111014900","1111060000","서울특별시 종로구 율곡로 89(원서동)","500","60","","","126.988998","37.577859","199028.116306","553145.545972"
"7921","1111000000","374","서울특별시","종로구","013","연수,숙박","메이플레이스 호텔","1111015900100250002016052","1111015900","1111061500","서울특별시 종로구 율곡로 179(원남동)","9900","120","","","126.998749","37.576103","199889.523053","552950.675038"
"7922","1111000000","375","서울특별시","종로구","013","연수,숙박","오라카이 대학로 호텔","1111015900100490017000001","1111015900","1111061500","서울특별시 종로구 율곡로 180(원남동)","9900","120","","","126.998717","37.575604","199886.653156","552895.271854"
"7923","1111000000","321","서울특별시","종로구","001","학교","효제초등학교","1111016200102550004013213","1111016200","1111063000","서울특별시 종로구 대학로 12(효제동)","578","222","박진성","02-742-5760","127.002931","37.572674","200258.936834","552570.065689"
"7924","1111000000","361","서울특별시","종로구","004","관공서","종로56가동주민센터","1111016200101730002031896","1111016200","1111063000","서울특별시 종로구 종로35가길 19(효제동)","160","61","","","127.005068","37.572051","200447.680045","552500.892433"
"9161","1168000000","527","서울특별시","강남구","001","학교","대명중학교","1168010600109520000026398","1168010600","1168061000","서울특별시 강남구 역삼로87길 26(대치동)","1623","624","한명일, 김영숙","02-3423-8430","127.060388","37.506225","205339.408586","545196.713418"
"9162","1168000000","10","서울특별시","강남구","001","학교","단국대학교사범대학부속고등학교","1168010600110130003014295","1168010600","1168060000","서울특별시 강남구 도곡로64길 21(대치동)","4601","1769","오경숙, 장연길","02-3423-8308","127.056987","37.495195","205039.405306","543972.367397"
"9163","1168000000","528","서울특별시","강남구","001","학교","도곡초등학교","1168010600109240010013723","1168010600","1168063000","서울특별시 강남구 선릉로64길 33(대치동)","12553","4828","오용석, 임진묵","02-3423-8505","127.054468","37.499549","204816.404795","544455.501795"
"9164","1168000000","328","서울특별시","강남구","004","관공서","대치1문화센터","1168010600106460002000001","1168010600","1168060000","서울특별시 강남구 남부순환로391길 19(대치동)","459","176","오경숙","02-3423-8308","127.056771","37.493246","205020.491279","543755.980186"
"9165","1168000000","330","서울특별시","강남구","004","관공서","대치4문화센터","1168010600109280022013655","1168010600","1168063000","서울특별시 강남구 도곡로77길 23(대치동)","958","368","오용석","02-3423-8505","127.057884","37.499674","205118.414372","544469.497724"
"9166","1168000000","318","서울특별시","강남구","001","학교","신구초등학교","1168010700105500011010531","1168010700","1168051000","서울특별시 강남구 압구정로18길 28(신사동)","14793","5689","전혜경,박노운","02-3423-7307","127.023938","37.523355","202116.049393","547096.536580"
"9167","1168000000","522","서울특별시","강남구","004","관공서","신사문화센터","1168010700105480001010457","1168010700","1168051000","서울특별시 강남구 압구정로 128(신사동)","1722","662","전혜경","02-3423-7307","127.022793","37.523980","202014.847945","547165.825351"
"9168","1168000000","3","서울특별시","강남구","001","학교","학동초등학교","1168010800102640007007179","1168010800","1168053100","서울특별시 강남구 선릉로115길 42(논현동)","190","73","김민호,석종봉","02-3423-7505","127.039431","37.512058","203486.121772","545843.181240"
"9169","1168000000","491","서울특별시","강남구","001","학교","논현초등학교","1168010800101680000008742","1168010800","1168052100","서울특별시 강남구 강남대로120길 33(논현동)","12078","4645","조남식,서성우","02-3423-7425","127.026118","37.508418","202309.234723","545438.694500"
"9170","1168000000","523","서울특별시","강남구","004","관공서","논현1문화센터","1168010800101330013027971","1168010800","1168052100","서울특별시 강남구 학동로20길 25(논현동)","437","168","조남식","02-3423-7425","127.028512","37.511501","202520.767714","545781.001699"
"9171","1168000000","520","서울특별시","강남구","004","관공서","논현2문화센터","1168010800101140024005886","1168010800","1168053100","서울특별시 강남구 학동로43길 17(논현동)","1635","628","김민호","02-3423-7505","127.037050","37.517374","203275.388500","546433.084306"
"9172","1168000000","540","서울특별시","강남구","001","학교","세명초등학교","1168011100104640005000001","1168011100","1168070000","서울특별시 강남구 자곡로 55(세곡동)","13416","5160","이호병, 송인호","02-3423-8656","127.091340","37.468935","208080.084209","541060.252530"
"9173","1168000000","543","서울특별시","강남구","004","관공서","세곡문화센터","1168011300102780001027317","1168011300","1168070000","서울특별시 강남구 밤고개로 286(율현동)","429","165","","","127.106959","37.469043","209461.833608","541073.630404"
"9174","1168000000","24","서울특별시","강남구","001","학교","중동고등학교","1168011400106180000002022","1168011400","1168073000","서울특별시 강남구 일원로 7(일원동)","17178","6606","최기원 행정실장,신채경 주무관","02-3423-8357","127.080772","37.493132","207142.933457","543744.960409"
"9175","1168000000","537","서울특별시","강남구","001","학교","서울로봇고등학교","1168011400107380000003094","1168011400","1168072000","서울특별시 강남구 광평로20길 63(일원동)","2079","799","김재범, 김인혜","02-3423-8255","127.084708","37.480634","207492.278166","542358.114232"
"9176","1168000000","539","서울특별시","강남구","001","학교","중동중학교","1168011400106920000002797","1168011400","1168074000","서울특별시 강남구 일원로8길 37(일원동)","4150","1596","양승엽, 김정술","02-3423-8457","127.078698","37.488324","206960.006375","543211.177898"
"9177","1168000000","538","서울특별시","강남구","001","학교","영희초등학교","1168011400106170000002246","1168011400","1168073000","서울특별시 강남구 일원로 21(일원동)","5592","2150","신채경, 유남구","02-3423-8357","127.081001","37.492273","207163.264169","543649.591202"
"9178","1168000000","541","서울특별시","강남구","001","학교","수서중학교","1168011500107100000001357","1168011500","1168075000","서울특별시 강남구 광평로59길 57(수서동)","2550","980","강주연","","127.102389","37.491066","209054.828478","543517.439069"
"9179","1168000000","16","서울특별시","강남구","001","학교","언주초등학교","1168011800109220000000719","1168011800","1168065500","서울특별시 강남구 남부순환로363길 19(도곡동)","20086","7725","이종훈, 유형선","02-3423-7456","127.037033","37.486646","203275.226695","543022.652718"
"9180","1171000000","352","서울특별시","송파구","001","학교","서울신천초등학교","1171010100100270005000276","1171010100","1171068000","서울특별시 송파구 올림픽로 215(잠실동)","7090","2726","잠실3동장","02-2147-4660","127.095091","37.515440","208406.698766","546222.034768"
"9181","1171000000","379","서울특별시","송파구","001","학교","서울송전초등학교","1171010100100440002000003","1171010100","1171068000","서울특별시 송파구 석촌호수로 159(잠실동)","1639","630","잠실3동장","02-2147-4660","127.094811","37.508447","208382.737426","545445.844521"
"9182","1171000000","374","서울특별시","송파구","001","학교","영동일고등학교","1171010100100350001000001","1171010100","1171068000","서울특별시 송파구 석촌호수로 93(잠실동)","5320","2046","잠실3동장","02-2147-4660","127.089516","37.509671","207914.459488","545581.300988"
"9183","1171000000","487","서울특별시","송파구","001","학교","서울잠일초등학교","1171010100100190001000001","1171010100","1171067000","서울특별시 송파구 올림픽로 95(잠실동)","13722","5277","잠실2동장","","127.081637","37.514650","207217.365712","546133.174423"
"9184","1171000000","497","서울특별시","송파구","001","학교","서울아주초등학교","1171010100101150000000054","1171010100","1171072000","서울특별시 송파구 올림픽로4길 59(잠실동)","5824","2240","","","127.075977","37.505367","206717.787778","545102.496150"
"9185","1171000000","495","서울특별시","송파구","013","연수,숙박","에이 플러스","1171010100101790000000664","1171010100","1171065000","서울특별시 송파구 백제고분로7길 15-10 (잠실동)","1549","192","잠실본동장","02-2147-4600","127.080658","37.511012","207131.200877","545729.343525"
"9186","1171000000","329","서울특별시","송파구","001","학교","서울잠실초등학교","1171010200100200002000001","1171010200","1171069000","서울특별시 송파구 올림픽로35길 20(신천동)","2758","1060","잠실4동장","02-2147-4690","127.111446","37.520124","209851.988327","546743.449163"
"9187","1171000000","494","서울특별시","송파구","001","학교","서울잠동초등학교","1171010200100070002000189","1171010200","1171071000","서울특별시 송파구 올림픽로35길 122(신천동)","9451","3635","방이2동장","02-2147-4210","127.100074","37.518011","208846.928626","546507.870236"
"9188","1171000000","478","서울특별시","송파구","001","학교","풍성중학교","1171010300103880016025059","1171010300","1171052000","서울특별시 송파구 강동대로2길 27(풍납동)","9578","3683","풍납2동장","","127.113067","37.525367","209994.588181","547325.499985"
"9189","1171000000","470","서울특별시","송파구","001","학교","서울풍납초등학교","1171010300101650000026379","1171010300","1171051000","서울특별시 송파구 풍성로 43(풍납동)","6577","2529","풍납1동장","","127.118033","37.535184","210432.227620","548415.667363"
"9190","1171000000","477","서울특별시","송파구","001","학교","서울토성초등학교","1171010300102510000024639","1171010300","1171052000","서울특별시 송파구 풍성로20길 44(풍납동)","3248","1249","풍납2동장","","127.115853","37.532112","210240.001457","548074.491259"
"9191","1171000000","340","서울특별시","송파구","001","학교","서울송파초등학교","1171010400101140000012759","1171010400","1171058000","서울특별시 송파구 백제고분로 400(송파동)","12140","4669","송파1동장","02-2147-4300","127.110752","37.507053","209792.359273","545292.667775"
"9192","1171000000","366","서울특별시","송파구","001","학교","서울중대초등학교","1171010400101910000012061","1171010400","1171059000","서울특별시 송파구 송파대로36길 8(송파동)","8711","3350","송파2동장","02-2147-4330","127.113710","37.500104","210054.822944","544521.726572"
"9193","1171000000","483","서울특별시","송파구","001","학교","가락중학교","1171010400101680000011806","1171010400","1171059000","서울특별시 송파구 송이로 45(송파동)","9600","3692","송파2동장","","127.118731","37.502477","210498.468255","544785.666122"
"9194","1171000000","371","서울특별시","송파구","007","기타시설","송파여성문화회관","1171010400101130002013251","1171010400","1171058000","서울특별시 송파구 백제고분로42길 5(송파동)","13405","5155","송파1동장","02-2147-4300","127.109782","37.505901","209706.735809","545164.717771"
"9195","1171000000","342","서울특별시","송파구","001","학교","서울석촌초등학교","1171010500102670000010016","1171010500","1171060000","서울특별시 송파구 가락로11길 26(석촌동)","8292","3189","석촌동장","02-2147-4360","127.104776","37.502551","209264.549596","544792.416201"
"9196","1171000000","489","서울특별시","송파구","007","기타시설","백제불한증막","1171010500100150000011525","1171010500","1171060000","서울특별시 송파구 백제고분로 293(석촌동)","1500","576","석촌동장","","127.099195","37.503014","208771.015753","544843.317319"
"9197","1171000000","343","서울특별시","송파구","001","학교","서울삼전초등학교","1171010600100630000008244","1171010600","1171061000","서울특별시 송파구 백제고분로28길 19(삼전동)","9927","3818","삼전동장","02-2147-4390","127.092589","37.501442","208187.094385","544668.153872"
"9198","1171000000","344","서울특별시","송파구","001","학교","서울신가초등학교","1171010700100430001006404","1171010700","1171062000","서울특별시 송파구 송이로 75(가락동)","6233","2397","가락본동장","02-2147-4420","127.121311","37.500721","210726.834692","544591.049200"
